[
  {
    "name": "노원 톡스앤필의원",
    "address": "서울특별시 노원구 노해로 488, 근호빌딩 3층 (상계동)",
    "index": "피부과",
    "phone": "02-933-7585",
    "bed": 0,
    "dec": 2,
    "lon": 127.0592672,
    "lat": 37.65432112
  },
  {
    "name": "행복한제이피부과의원",
    "address": "서울특별시 노원구 노해로 494, 고려빌딩 4층 402,403,404,405호 (상계동)",
    "index": "피부과",
    "phone": "02-937-8575",
    "bed": 0,
    "dec": 1,
    "lon": 127.0601084,
    "lat": 37.65451136
  },
  {
    "name": "화랑윤치과의원",
    "address": "서울특별시 노원구 노원로1길 67, 대덕프라자 301호 (공릉동)",
    "index": "구강악안면외과, 치과보철과, 치과교정과, 소아치과, 치주과, 치과보존과, 구강내과, 영상치의학과, 구강병리과, 예방치과",
    "phone": "02-974-8828",
    "bed": 0,
    "dec": 2,
    "lon": 127.0807121,
    "lat": 37.62081085
  },
  {
    "name": "클린업피부과의원",
    "address": "서울특별시 노원구 노해로 451, 청산빌딩 4층 (상계동)",
    "index": "피부과",
    "phone": "556-9070",
    "bed": 0,
    "dec": 2,
    "lon": 127.0553276,
    "lat": 37.65410128
  },
  {
    "name": "하이키한의원",
    "address": "서울특별시 노원구 노원로 449, 7층 (상계동)",
    "index": "한방내과, 한방부인과, 한방소아과, 한방안·이비인후·피부과, 한방신경정신과, 한방재활의학과, 사상체질과, 침구과",
    "phone": "02-935-1177",
    "bed": 0,
    "dec": 2,
    "lon": 127.0635538,
    "lat": 37.65666731
  },
  {
    "name": "연세안과의원",
    "address": "서울특별시 노원구 동일로 986, 101동 206호 (공릉동, 노원 프레미어스 엠코)",
    "index": "안과",
    "phone": "02-555-1013",
    "bed": 0,
    "dec": 1,
    "lon": 127.0733289,
    "lat": 37.61853184
  },
  {
    "name": "성모척척마취통증의학과의원",
    "address": "서울특별시 노원구 덕릉로126길 2, 1층 101호 (상계동)",
    "index": "내과, 정형외과, 신경외과, 마취통증의학과, 재활의학과",
    "phone": "02-952-1100",
    "bed": 0,
    "dec": 1,
    "lon": 127.0785082,
    "lat": 37.6701775
  },
  {
    "name": "상계우리치과의원",
    "address": "서울특별시 노원구 덕릉로126길 2, 102호 (상계동)",
    "index": "구강악안면외과, 치과보철과, 치과교정과, 소아치과, 치주과, 치과보존과, 구강내과, 영상치의학과, 구강병리과, 예방치과, 통합치의학과",
    "phone": "02-930-0007",
    "bed": 0,
    "dec": 1,
    "lon": 127.0785082,
    "lat": 37.6701775
  },
  {
    "name": "노원 아이디의원",
    "address": "서울특별시 노원구 노해로 455, 인산빌딩 7층전체층 (상계동)",
    "index": "내과, 피부과, 가정의학과",
    "phone": "1855-0050",
    "bed": 0,
    "dec": 2,
    "lon": 127.0556422,
    "lat": 37.65416214
  },
  {
    "name": "아이디치과의원",
    "address": "서울특별시 노원구 동일로 1396, 중원빌딩 2층전체층 (상계동)",
    "index": "구강악안면외과, 치과보철과, 치과교정과, 소아치과, 치주과, 치과보존과",
    "phone": "02-3496-5680",
    "bed": 0,
    "dec": 2,
    "lon": 127.0584243,
    "lat": 37.6532439
  },
  {
    "name": "설명한의원",
    "address": "서울특별시 노원구 동일로 1350, 삼양빌딩 2층 202, 203호 (상계동)",
    "index": "한방내과, 한방부인과, 한방소아과, 한방안·이비인후·피부과, 한방신경정신과, 한방재활의학과, 사상체질과, 침구과",
    "phone": "0507-1359-7553",
    "bed": 0,
    "dec": 4,
    "lon": 127.0595175,
    "lat": 37.6492475
  },
  {
    "name": "휴킨스피부과의원",
    "address": "서울특별시 노원구 동일로204가길 34, 씨앤미복합빌딩 252호~260호 (중계동)",
    "index": "피부과",
    "phone": "02-977-6447",
    "bed": 0,
    "dec": 1,
    "lon": 127.0653461,
    "lat": 37.64074925
  },
  {
    "name": "위대한내과의원",
    "address": "서울특별시 노원구 화랑로 325, 우현빌딩 2층 (월계동)",
    "index": "내과, 신경과, 정신건강의학과, 외과, 소아청소년과, 안과, 이비인후과, 피부과, 비뇨의학과, 가정의학과",
    "phone": "02-6964-8200",
    "bed": 0,
    "dec": 1,
    "lon": 127.0611612,
    "lat": 37.61490731
  },
  {
    "name": "온정한의원",
    "address": "서울특별시 노원구 상계로27길 12, 경인빌딩 2층 203호 (상계동)",
    "index": "한방내과, 한방부인과, 한방소아과, 한방안·이비인후·피부과, 한방신경정신과, 한방재활의학과, 사상체질과, 침구과",
    "phone": "02-6956-8270",
    "bed": 0,
    "dec": 1,
    "lon": 127.0678467,
    "lat": 37.65916932
  },
  {
    "name": "성모나무정신건강의학과의원",
    "address": "서울특별시 노원구 화랑로 337, 3층 303호 (월계동)",
    "index": "정신건강의학과",
    "phone": "02-6925-0002",
    "bed": 0,
    "dec": 2,
    "lon": 127.0622393,
    "lat": 37.61528425
  },
  {
    "name": "좋은날치과의원",
    "address": "서울특별시 노원구 공릉로43길 1 (공릉동)",
    "index": "구강악안면외과, 치과보철과, 치과교정과, 소아치과, 치주과, 치과보존과, 구강내과, 영상치의학과, 구강병리과, 예방치과",
    "phone": "02-6436-2875",
    "bed": 0,
    "dec": 1,
    "lon": 127.0764523,
    "lat": 37.62604868
  },
  {
    "name": "88플러스내과의원",
    "address": "서울특별시 노원구 동일로192길 74, 201,202호 (공릉동, 우은빌딩)",
    "index": "내과",
    "phone": "02-972-8800",
    "bed": 0,
    "dec": 1,
    "lon": 127.0741,
    "lat": 37.62711114
  },
  {
    "name": "닥터권치과의원",
    "address": "서울특별시 노원구 공릉로 360, 2층 (하계동)",
    "index": "구강악안면외과, 치과보철과, 치과교정과, 소아치과, 치주과, 치과보존과, 구강내과, 영상치의학과, 예방치과",
    "phone": "02-6228-2828",
    "bed": 0,
    "dec": 2,
    "lon": 127.0669618,
    "lat": 37.63888706
  },
  {
    "name": "바른이정치과의원",
    "address": "서울특별시 노원구 덕릉로 603, 삼화빌딩 2층 (중계동)",
    "index": "구강악안면외과, 치과보철과, 치과교정과, 소아치과, 치주과, 치과보존과, 구강내과, 영상치의학과, 구강병리과, 예방치과, 통합치의학과",
    "phone": "02-6317-2875",
    "bed": 0,
    "dec": 1,
    "lon": 127.0699347,
    "lat": 37.65181939
  },
  {
    "name": "연세기린소아청소년과의원",
    "address": "서울특별시 노원구 상계로1길 38, 금문 3층 전체호 (상계동)",
    "index": "내과, 소아청소년과, 이비인후과, 피부과",
    "phone": "02-930-2500",
    "bed": 0,
    "dec": 1,
    "lon": 127.058828,
    "lat": 37.65771731
  },
  {
    "name": "치우치과의원",
    "address": "서울특별시 노원구 동일로 1417, 삼양빌딩 6층 (상계동)",
    "index": "구강악안면외과, 치과보철과, 치과교정과, 소아치과, 치주과, 치과보존과, 구강내과, 영상치의학과, 예방치과, 통합치의학과",
    "phone": "02-939-8275",
    "bed": 0,
    "dec": 2,
    "lon": 127.0570693,
    "lat": 37.65509367
  },
  {
    "name": "태능성심의원",
    "address": "서울특별시 노원구 동일로 987, 지하1층, 2층 일부 (공릉동)",
    "index": "내과, 가정의학과",
    "phone": "02-970-0920",
    "bed": 0,
    "dec": 1,
    "lon": 127.0721058,
    "lat": 37.61825784
  },
  {
    "name": "노원센트럴의원",
    "address": "서울특별시 노원구 덕릉로126길 2, 201,202호 (상계동)",
    "index": "내과, 신경과, 외과, 정형외과, 산부인과, 소아청소년과, 이비인후과, 피부과, 비뇨의학과, 가정의학과, 응급의학과",
    "phone": "02-2242-8602",
    "bed": 0,
    "dec": 5,
    "lon": 127.0785082,
    "lat": 37.6701775
  },
  {
    "name": "더조은내과의원",
    "address": "서울특별시 노원구 동일로 1077, 스테이션빌 빌딩 2층 (공릉동)",
    "index": "내과, 신경과, 정신건강의학과, 외과, 정형외과, 신경외과, 흉부외과, 산부인과, 소아청소년과, 안과, 이비인후과, 피부과, 비뇨의학과, 영상의학과, 가정의학과",
    "phone": "02-948-1400",
    "bed": 0,
    "dec": 1,
    "lon": 127.0695156,
    "lat": 37.62604118
  },
  {
    "name": "태릉정원내과의원",
    "address": "서울특별시 노원구 동일로 1005, 대정빌딩 5,6층 (공릉동)",
    "index": "내과, 신경과, 정신건강의학과, 외과, 정형외과, 산부인과, 소아청소년과, 안과, 이비인후과, 피부과, 비뇨의학과",
    "phone": "02-979-0333",
    "bed": 0,
    "dec": 4,
    "lon": 127.07162,
    "lat": 37.61992782
  },
  {
    "name": "몸편한내과의원",
    "address": "서울특별시 노원구 덕릉로 744, 금강빌딩 2층 (상계동)",
    "index": "내과, 신경과, 산부인과, 소아청소년과, 이비인후과, 피부과, 비뇨의학과",
    "phone": "02-930-1900",
    "bed": 0,
    "dec": 2,
    "lon": 127.0736909,
    "lat": 37.66385978
  },
  {
    "name": "노원진마취통증의학과의원",
    "address": "서울특별시 노원구 공릉로 105, 성종빌딩 2,3층 (공릉동)",
    "index": "정형외과, 신경외과, 마취통증의학과, 피부과, 재활의학과",
    "phone": "02-979-7553",
    "bed": 12,
    "dec": 1,
    "lon": 127.0749595,
    "lat": 37.61961913
  },
  {
    "name": "맑은숨이비인후과의원",
    "address": "서울특별시 노원구 초안산로2라길 26, 상가동 201,202,203,205호 (월계동, 월계센트럴아이파크아파트)",
    "index": "신경과, 소아청소년과, 이비인후과",
    "phone": "02-993-0555",
    "bed": 2,
    "dec": 2,
    "lon": 127.0548465,
    "lat": 37.63119342
  },
  {
    "name": "서울공릉재활의학과의원",
    "address": "서울특별시 노원구 동일로 1028, 한의학명가 2층 (공릉동)",
    "index": "정형외과, 신경외과, 마취통증의학과, 재활의학과",
    "phone": "02-949-7440",
    "bed": 0,
    "dec": 3,
    "lon": 127.0716964,
    "lat": 37.62200832
  },
  {
    "name": "이오치과의원",
    "address": "서울특별시 노원구 노원로 540, 상계주공아파트 9단지상가 117호 (상계동)",
    "index": "구강악안면외과, 치과보철과, 치과교정과, 소아치과, 치주과, 치과보존과",
    "phone": "02-3482-2875",
    "bed": 0,
    "dec": 1,
    "lon": 127.0565054,
    "lat": 37.66145743
  },
  {
    "name": "온재한의원",
    "address": "서울특별시 노원구 한글비석로 361, 성화빌딩 1층 (중계동)",
    "index": "한방내과, 한방부인과, 한방소아과, 한방안·이비인후·피부과, 한방신경정신과, 한방재활의학과, 사상체질과, 침구과",
    "phone": "02-6952-8210",
    "bed": 0,
    "dec": 1,
    "lon": 127.0717064,
    "lat": 37.6578599
  },
  {
    "name": "공릉성모마취통증의학과의원",
    "address": "서울특별시 노원구 공릉로43길 1, 4층 (공릉동)",
    "index": "내과, 외과, 정형외과, 신경외과, 흉부외과, 마취통증의학과, 소아청소년과, 안과, 이비인후과, 피부과, 재활의학과, 가정의학과",
    "phone": "02-979-1231",
    "bed": 0,
    "dec": 1,
    "lon": 127.0764523,
    "lat": 37.62604868
  },
  {
    "name": "이가영산부인과의원",
    "address": "서울특별시 노원구 한글비석로 270, 스카이타워 (중계동)",
    "index": "산부인과",
    "phone": "02-952-0997",
    "bed": 0,
    "dec": 1,
    "lon": 127.0745418,
    "lat": 37.65155821
  },
  {
    "name": "삼성플란트치과의원",
    "address": "서울특별시 노원구 공릉로59길 28 (하계동, 미성아파트)",
    "index": "구강악안면외과, 치과보철과, 치과교정과, 소아치과, 치주과, 치과보존과, 구강내과, 영상치의학과, 구강병리과, 예방치과",
    "phone": "02-6956-8275",
    "bed": 0,
    "dec": 1,
    "lon": 127.0666513,
    "lat": 37.63468265
  },
  {
    "name": "하나이비인후과의원",
    "address": "서울특별시 노원구 동일로 1405, 국민은행노원지점 5층 (상계동)",
    "index": "이비인후과",
    "phone": "02-952-8883",
    "bed": 2,
    "dec": 2,
    "lon": 127.0573279,
    "lat": 37.65381987
  },
  {
    "name": "중계하늘의원",
    "address": "서울특별시 노원구 동일로 1308, 정안프라자 2층 205호 (중계동)",
    "index": "내과, 정형외과, 이비인후과, 피부과, 비뇨의학과, 가정의학과",
    "phone": "02-933-8891",
    "bed": 0,
    "dec": 1,
    "lon": 127.0632099,
    "lat": 37.64700126
  },
  {
    "name": "서울미소치과의원",
    "address": "서울특별시 노원구 초안산로2라길 26, 2층 208호,209호 (월계동, 월계센트럴아이파크)",
    "index": "치과보철과",
    "phone": "02-904-2080",
    "bed": 0,
    "dec": 1,
    "lon": 127.0541787,
    "lat": 37.63053775
  },
  {
    "name": "로담한의원",
    "address": "서울특별시 노원구 동일로 1413, 남성빌딩 8층 (상계동)",
    "index": "한방내과, 한방부인과, 한방소아과, 한방안·이비인후·피부과, 한방신경정신과, 한방재활의학과, 사상체질과, 침구과",
    "phone": "02-936-7787",
    "bed": 0,
    "dec": 1,
    "lon": 127.0571268,
    "lat": 37.65476572
  },
  {
    "name": "더웰내과의원",
    "address": "서울특별시 노원구 한글비석로 383, 삼창타워프라자 2층 12호 (중계동)",
    "index": "내과, 소아청소년과, 이비인후과, 피부과, 비뇨의학과",
    "phone": "02-2135-8458",
    "bed": 0,
    "dec": 5,
    "lon": 127.0697706,
    "lat": 37.65897035
  },
  {
    "name": "한음 한방신경정신과 한의원",
    "address": "서울특별시 노원구 상계로 70, 화랑빌딩 5층 (상계동)",
    "index": "한방신경정신과",
    "phone": "02-933-1075",
    "bed": 0,
    "dec": 1,
    "lon": 127.0598716,
    "lat": 37.65602098
  },
  {
    "name": "중계은행사거리 마취통증의학과의원",
    "address": "서울특별시 노원구 중계로 206, 세일학원 2층 (중계동)",
    "index": "정형외과, 신경외과, 마취통증의학과, 재활의학과",
    "phone": "02-931-7578",
    "bed": 0,
    "dec": 1,
    "lon": 127.0746408,
    "lat": 37.65087145
  },
  {
    "name": "경희오늘한의원",
    "address": "서울특별시 노원구 동일로 1366, 삼봉빌딩 4층 (상계동)",
    "index": "한방내과, 한방부인과, 한방소아과, 한방안·이비인후·피부과, 한방신경정신과, 한방재활의학과, 사상체질과",
    "phone": "02-935-5500",
    "bed": 0,
    "dec": 1,
    "lon": 127.0591081,
    "lat": 37.6505568
  },
  {
    "name": "중계수내과의원",
    "address": "서울특별시 노원구 한글비석로 273, 대웅빌딩 3층 (중계동)",
    "index": "내과, 신경과, 이비인후과",
    "phone": "02-930-0310",
    "bed": 0,
    "dec": 1,
    "lon": 127.0743012,
    "lat": 37.65217587
  },
  {
    "name": "광덕안정한의원",
    "address": "서울특별시 노원구 노해로 494, 고려빌딩 502호 (상계동)",
    "index": "한방내과, 한방부인과, 한방소아과, 한방안·이비인후·피부과, 한방신경정신과, 한방재활의학과, 사상체질과, 침구과",
    "phone": "02-930-1075",
    "bed": 0,
    "dec": 3,
    "lon": 127.0601084,
    "lat": 37.65451136
  },
  {
    "name": "경희현한의원",
    "address": "서울특별시 노원구 상계로5길 12, 304호 (상계동, 동양메이저아파트)",
    "index": "한방내과, 한방부인과, 한방소아과, 한방안·이비인후·피부과, 한방신경정신과, 한방재활의학과, 사상체질과, 침구과",
    "phone": "02-931-1075",
    "bed": 0,
    "dec": 1,
    "lon": 127.0610853,
    "lat": 37.65763632
  },
  {
    "name": "김영득마취통증의학과의원",
    "address": "서울특별시 노원구 상계로 320, 불암빌딩 3층 (상계동)",
    "index": "내과, 신경과, 외과, 정형외과, 신경외과, 마취통증의학과, 재활의학과",
    "phone": "02-6231-0075",
    "bed": 0,
    "dec": 1,
    "lon": 127.0779045,
    "lat": 37.67025211
  },
  {
    "name": "예쁨주의쁨의원",
    "address": "서울특별시 노원구 동일로 1405, 국민은행노원지점 6층 (상계동)",
    "index": "성형외과, 피부과",
    "phone": "02-518-5020",
    "bed": 0,
    "dec": 1,
    "lon": 127.0573279,
    "lat": 37.65381987
  },
  {
    "name": "노원스카이정형외과의원",
    "address": "서울특별시 노원구 동일로 1405, 국민은행노원지점 7층 (상계동)",
    "index": "정형외과, 신경외과, 마취통증의학과, 재활의학과",
    "phone": "02-6956-3911",
    "bed": 2,
    "dec": 2,
    "lon": 127.0573279,
    "lat": 37.65381987
  },
  {
    "name": "두리이비인후과의원",
    "address": "서울특별시 노원구 동일로 1077, 스테이션빌 빌딩 3층 1호 (공릉동)",
    "index": "이비인후과",
    "phone": "02-6953-1282",
    "bed": 1,
    "dec": 1,
    "lon": 127.0695156,
    "lat": 37.62604118
  },
  {
    "name": "무양한의원",
    "address": "서울특별시 노원구 한글비석로 97 (하계동)",
    "index": "한방내과, 한방부인과, 한방소아과, 한방안·이비인후·피부과, 한방신경정신과, 한방재활의학과, 사상체질과, 침구과",
    "phone": "02-949-1333",
    "bed": 0,
    "dec": 1,
    "lon": 127.0700024,
    "lat": 37.63864733
  },
  {
    "name": "상계나무마취통증의학과의원",
    "address": "서울특별시 노원구 동일로 1533, 백산빌딩 302호 (상계동)",
    "index": "내과, 정형외과, 신경외과, 마취통증의학과",
    "phone": "02-2039-5351",
    "bed": 0,
    "dec": 1,
    "lon": 127.0543296,
    "lat": 37.66534537
  },
  {
    "name": "맑을아 의원",
    "address": "서울특별시 노원구 노해로81길 5-6, 노원스퀘어 3층 (상계동)",
    "index": "피부과, 가정의학과",
    "phone": "02-930-9302",
    "bed": 0,
    "dec": 1,
    "lon": 127.0594965,
    "lat": 37.65522905
  },
  {
    "name": "브라보마취통증의학과의원",
    "address": "서울특별시 노원구 상계로27길 32, 3층 (상계동)",
    "index": "내과, 신경과, 외과, 정형외과, 신경외과, 마취통증의학과, 이비인후과, 재활의학과, 가정의학과",
    "phone": "02-938-8275",
    "bed": 0,
    "dec": 1,
    "lon": 127.0669833,
    "lat": 37.65996852
  },
  {
    "name": "서울이니셜치과의원",
    "address": "서울특별시 노원구 중계로 202, 신아프라자 202,203호 (중계동)",
    "index": "구강악안면외과, 치과보철과, 치과교정과, 소아치과, 치주과, 치과보존과, 구강내과, 영상치의학과, 구강병리과, 예방치과, 통합치의학과",
    "phone": "02-6677-2080",
    "bed": 0,
    "dec": 2,
    "lon": 127.0749148,
    "lat": 37.65086802
  },
  {
    "name": "뉴욕굿모닝치과의원",
    "address": "서울특별시 노원구 동일로 1366, 삼봉빌딩 2층 (상계동)",
    "index": "구강악안면외과, 치과보철과, 치과교정과, 소아치과, 치주과, 치과보존과, 구강내과, 영상치의학과, 구강병리과, 예방치과, 통합치의학과",
    "phone": "02-938-7528",
    "bed": 0,
    "dec": 1,
    "lon": 127.0591081,
    "lat": 37.6505568
  },
  {
    "name": "닥터에버스의원",
    "address": "서울특별시 노원구 노해로 492, 프린스빌딩 9층 901,902,903호 (상계동)",
    "index": "피부과, 가정의학과",
    "phone": "02-932-2010",
    "bed": 0,
    "dec": 3,
    "lon": 127.0597984,
    "lat": 37.65444083
  },
  {
    "name": "지음치과의원",
    "address": "서울특별시 노원구 동일로 1073, 기업은행 2층 (공릉동)",
    "index": "구강악안면외과, 치과보철과, 치과교정과, 소아치과, 치주과, 치과보존과, 구강내과, 영상치의학과, 구강병리과, 예방치과, 통합치의학과",
    "phone": "02-6314-2828",
    "bed": 0,
    "dec": 1,
    "lon": 127.0696605,
    "lat": 37.62575792
  },
  {
    "name": "퀸즈성형외과의원",
    "address": "서울특별시 노원구 동일로 1689, 203, 216호 (상계동, 하이베라스)",
    "index": "외과, 성형외과, 피부과",
    "phone": "02-937-0709",
    "bed": 0,
    "dec": 1,
    "lon": 127.0519963,
    "lat": 37.67911939
  },
  {
    "name": "삼성바른내과의원",
    "address": "서울특별시 노원구 한글비석로 270, 스카이타워 5층 (중계동)",
    "index": "내과, 신경과, 외과, 정형외과, 마취통증의학과, 소아청소년과, 이비인후과, 영상의학과, 병리과, 진단검사의학과, 가정의학과, 예방의학과",
    "phone": "02-3392-2475",
    "bed": 0,
    "dec": 4,
    "lon": 127.0745418,
    "lat": 37.65155821
  },
  {
    "name": "중계수치과의원",
    "address": "서울특별시 노원구 한글비석로 242 (중계동, 삼부프라자)",
    "index": "치과",
    "phone": "02-3392-2828",
    "bed": 0,
    "dec": 1,
    "lon": 127.0740733,
    "lat": 37.64930968
  },
  {
    "name": "이바른치과교정과치과의원",
    "address": "서울특별시 노원구 노해로 494, 401호 (상계동, 고려빌딩)",
    "index": "치과",
    "phone": "932-2885",
    "bed": 0,
    "dec": 1,
    "lon": 127.0601084,
    "lat": 37.65451136
  },
  {
    "name": "연세정형외과의원",
    "address": "서울특별시 노원구 한글비석로 438 (상계동, 연세정형외과)",
    "index": "내과, 정형외과, 신경외과, 비뇨의학과",
    "phone": "02-936-7940",
    "bed": 24,
    "dec": 1,
    "lon": 127.0660295,
    "lat": 37.66323578
  },
  {
    "name": "예원내과의원",
    "address": "서울특별시 노원구 광운로 45 (월계동)",
    "index": "내과",
    "phone": "943-7715",
    "bed": 0,
    "dec": 1,
    "lon": 127.0561718,
    "lat": 37.62149516
  },
  {
    "name": "서울가정의학과의원",
    "address": "서울특별시 노원구 중계로14길 29, 2층 (중계동)",
    "index": "내과, 신경과, 정신건강의학과, 외과, 정형외과, 신경외과, 흉부외과, 성형외과, 마취통증의학과, 산부인과, 소아청소년과, 안과, 이비인후과, 피부과, 비뇨의학과, 영상의학과, 가정의학과",
    "phone": "02-937-4637",
    "bed": 0,
    "dec": 1,
    "lon": 127.0791166,
    "lat": 37.64985185
  },
  {
    "name": "청치과의원",
    "address": "서울특별시 노원구 덕릉로 814, 6층 (상계동, 재원빌딩)",
    "index": "구강악안면외과, 치과보철과, 치과교정과, 소아치과, 치주과, 치과보존과, 구강내과, 영상치의학과, 구강병리과, 예방치과",
    "phone": "02-936-1936",
    "bed": 0,
    "dec": 1,
    "lon": 127.077687,
    "lat": 37.66930533
  },
  {
    "name": "등초당한의원",
    "address": "서울특별시 노원구 한글비석로 271 (중계동)",
    "index": "한방내과, 한방부인과, 한방소아과, 한방안·이비인후·피부과, 한방신경정신과, 사상체질과, 침구과",
    "phone": "02-936-4655",
    "bed": 0,
    "dec": 1,
    "lon": 127.0741349,
    "lat": 37.65199474
  },
  {
    "name": "명가한의원",
    "address": "서울특별시 노원구 동일로 1529, 308호 (상계동, 합동빌딩)",
    "index": "한방내과, 한방부인과, 한방안·이비인후·피부과, 침구과",
    "phone": "02-938-0075",
    "bed": 0,
    "dec": 1,
    "lon": 127.0544102,
    "lat": 37.66509813
  },
  {
    "name": "석계항맥외과의원",
    "address": "서울특별시 노원구 화랑로 321, 3층 (월계동)",
    "index": "외과",
    "phone": "02-911-9933",
    "bed": 5,
    "dec": 1,
    "lon": 127.0606073,
    "lat": 37.61469279
  },
  {
    "name": "명인한의원",
    "address": "서울특별시 노원구 덕릉로126길 11 (상계동)",
    "index": "한방내과, 한방부인과, 한방소아과, 한방안·이비인후·피부과, 한방신경정신과, 한방재활의학과, 사상체질과, 침구과",
    "phone": "02-3392-1025",
    "bed": 2,
    "dec": 1,
    "lon": 127.0789173,
    "lat": 37.67063302
  },
  {
    "name": "서울미치과교정과치과의원",
    "address": "서울특별시 노원구 노해로 492, 3층 5호 (상계동, 프린스빌딩)",
    "index": "치과",
    "phone": "02-930-6227",
    "bed": 0,
    "dec": 1,
    "lon": 127.0597984,
    "lat": 37.65444083
  },
  {
    "name": "김호철방사선과의원",
    "address": "서울특별시 노원구 동일로 1549, 2층 (상계동, 양성빌딩)",
    "index": "영상의학과",
    "phone": "936-1117",
    "bed": 0,
    "dec": 1,
    "lon": 127.0539907,
    "lat": 37.66671612
  },
  {
    "name": "김홍란치과의원",
    "address": "서울특별시 노원구 동일로228길 35, 청수빌딩 203호 (상계동)",
    "index": "치과",
    "phone": "952-0689",
    "bed": 0,
    "dec": 1,
    "lon": 127.056143,
    "lat": 37.66794098
  },
  {
    "name": "연세이비인후과의원",
    "address": "서울특별시 노원구 동일로 1005, 2층 (공릉동, 대정빌딩)",
    "index": "이비인후과",
    "phone": "02-976-7033",
    "bed": 0,
    "dec": 1,
    "lon": 127.07162,
    "lat": 37.61992782
  },
  {
    "name": "민현조내과의원",
    "address": "서울특별시 노원구 동일로 1101, 5층 (공릉동, 하니빌딩)",
    "index": "내과",
    "phone": "948-3456",
    "bed": 0,
    "dec": 8,
    "lon": 127.0683826,
    "lat": 37.6281413
  },
  {
    "name": "천내과의원",
    "address": "서울특별시 노원구 동일로 1343, 301호 (상계동, 동일프라자)",
    "index": "내과",
    "phone": "3296-3311",
    "bed": 0,
    "dec": 1,
    "lon": 127.0590962,
    "lat": 37.64849264
  },
  {
    "name": "류용도치과의원",
    "address": "서울특별시 노원구 한글비석로 384, 대호프라자 302호 304호 (중계동)",
    "index": "치과",
    "phone": "952-6169",
    "bed": 0,
    "dec": 2,
    "lon": 127.0704139,
    "lat": 37.65984142
  },
  {
    "name": "상계바론정형외과의원",
    "address": "서울특별시 노원구 한글비석로 383, 2층 (중계동, 삼창타워프라자)",
    "index": "내과, 외과, 정형외과, 신경외과, 소아청소년과, 피부과, 비뇨의학과, 재활의학과",
    "phone": "02-951-9966",
    "bed": 23,
    "dec": 3,
    "lon": 127.0697706,
    "lat": 37.65897035
  },
  {
    "name": "달라스치과의원",
    "address": "서울특별시 노원구 동일로 1363, 4층 (상계동, 명지프라자빌딩)",
    "index": "구강악안면외과, 치과보철과, 치과교정과, 소아치과, 치주과, 치과보존과, 구강내과, 영상치의학과, 구강병리과, 예방치과",
    "phone": "02-931-5165",
    "bed": 0,
    "dec": 2,
    "lon": 127.0583754,
    "lat": 37.65041786
  },
  {
    "name": "미래신경과의원",
    "address": "서울특별시 노원구 한글비석로24길 63, 중앙의원 (상계동)",
    "index": "신경과",
    "phone": "02-939-1115",
    "bed": 0,
    "dec": 1,
    "lon": 127.0706337,
    "lat": 37.66322422
  },
  {
    "name": "함소아한의원",
    "address": "서울특별시 노원구 노해로 488, 근호빌딩 6층 (상계동)",
    "index": "한방내과, 한방부인과, 한방소아과, 한방안·이비인후·피부과, 한방신경정신과, 한방재활의학과, 사상체질과, 침구과",
    "phone": "02-932-0600",
    "bed": 0,
    "dec": 2,
    "lon": 127.0592672,
    "lat": 37.65432112
  },
  {
    "name": "공릉치과의원",
    "address": "서울특별시 노원구 동일로 1045 (공릉동, 세종빌딩)",
    "index": "치과",
    "phone": "02-974-1669",
    "bed": 0,
    "dec": 1,
    "lon": 127.0704751,
    "lat": 37.62339766
  },
  {
    "name": "유영근이비인후과의원",
    "address": "서울특별시 노원구 한글비석로 470 (상계동, 동서기업빌딩)",
    "index": "이비인후과",
    "phone": "02-951-0175",
    "bed": 0,
    "dec": 4,
    "lon": 127.0630966,
    "lat": 37.6647178
  },
  {
    "name": "남서울내과의원",
    "address": "서울특별시 노원구 노해로 488, 근호빌딩 4층,7층 (상계동)",
    "index": "내과",
    "phone": "938-0875",
    "bed": 0,
    "dec": 24,
    "lon": 127.0592672,
    "lat": 37.65432112
  },
  {
    "name": "노원이서진내과의원",
    "address": "서울특별시 노원구 월계로 334, 2층 (월계동, 그랑디오피스텔)",
    "index": "내과",
    "phone": "942-8275",
    "bed": 0,
    "dec": 11,
    "lon": 127.0548816,
    "lat": 37.62884869
  },
  {
    "name": "김대현내과의원",
    "address": "서울특별시 노원구 동일로191길 28, 2층 (공릉동)",
    "index": "내과, 소아청소년과, 이비인후과, 피부과",
    "phone": "02-979-0902",
    "bed": 0,
    "dec": 1,
    "lon": 127.0684698,
    "lat": 37.62511886
  },
  {
    "name": "추교영내과의원",
    "address": "서울특별시 노원구 공릉로 144, 2층 (공릉동, 공릉빌딩)",
    "index": "내과, 신경과, 정형외과, 소아청소년과, 이비인후과, 피부과, 비뇨의학과, 영상의학과",
    "phone": "977-7532",
    "bed": 0,
    "dec": 1,
    "lon": 127.0766506,
    "lat": 37.62264996
  },
  {
    "name": "당고개정형외과의원",
    "address": "서울특별시 노원구 덕릉로126길 11, 4층 (상계동, 신천지빌딩)",
    "index": "내과, 정형외과, 신경외과, 소아청소년과, 피부과, 비뇨의학과, 재활의학과",
    "phone": "933-5006",
    "bed": 0,
    "dec": 3,
    "lon": 127.0788297,
    "lat": 37.67067175
  },
  {
    "name": "영치과의원",
    "address": "서울특별시 노원구 공릉로34길 34, 2층 (공릉동, 서광빌딩)",
    "index": "치과",
    "phone": "977-2875",
    "bed": 0,
    "dec": 1,
    "lon": 127.078131,
    "lat": 37.6229673
  },
  {
    "name": "송내과의원",
    "address": "서울특별시 노원구 동일로 1669 (상계동)",
    "index": "내과",
    "phone": "3392-2275",
    "bed": 0,
    "dec": 1,
    "lon": 127.0519659,
    "lat": 37.67747556
  },
  {
    "name": "이앤정정신건강의학과의원",
    "address": "서울특별시 노원구 동일로 1345, 2층 204호 (상계동, 인천빌딩)",
    "index": "신경과, 정신건강의학과, 가정의학과",
    "phone": "939-0909",
    "bed": 0,
    "dec": 2,
    "lon": 127.0589892,
    "lat": 37.64868963
  },
  {
    "name": "조가정의학과의원",
    "address": "서울특별시 노원구 마들로 111 (월계동, 삼호나상가 211호)",
    "index": "가정의학과",
    "phone": "978-2440",
    "bed": 0,
    "dec": 1,
    "lon": 127.0625257,
    "lat": 37.62459059
  },
  {
    "name": "문미호소아과의원",
    "address": "서울특별시 노원구 섬밭로 229, 208호 (하계동, 벽산상가)",
    "index": "소아청소년과",
    "phone": "02-977-4695",
    "bed": 0,
    "dec": 1,
    "lon": 127.0613537,
    "lat": 37.63544529
  },
  {
    "name": "반석치과의원",
    "address": "서울특별시 노원구 상계로1길 38-11 (상계동, 우창프라자)",
    "index": "치과",
    "phone": "02-936-9075",
    "bed": 0,
    "dec": 1,
    "lon": 127.0594935,
    "lat": 37.65799419
  },
  {
    "name": "석계탑치과의원",
    "address": "서울특별시 노원구 마들로 31, 주상가동 3층 (월계동, 그랑빌아파트)",
    "index": "치과",
    "phone": "971-7528",
    "bed": 0,
    "dec": 1,
    "lon": 127.065678,
    "lat": 37.61780285
  },
  {
    "name": "한상호내과의원",
    "address": "서울특별시 노원구 상계로 65 (상계동)",
    "index": "내과",
    "phone": "937-4313",
    "bed": 0,
    "dec": 1,
    "lon": 127.0593278,
    "lat": 37.65639959
  },
  {
    "name": "바른최치과의원",
    "address": "서울특별시 노원구 동일로 1379, 다모아빌딩 301호 (상계동)",
    "index": "구강악안면외과, 치과보철과, 치과교정과, 소아치과, 치주과, 치과보존과, 구강내과, 영상치의학과, 구강병리과, 예방치과, 통합치의학과",
    "phone": "02-931-7405",
    "bed": 0,
    "dec": 1,
    "lon": 127.0579887,
    "lat": 37.65180055
  },
  {
    "name": "자모치과의원",
    "address": "서울특별시 노원구 동일로 1343, 동일프라자빌딩 (상계동)",
    "index": "치과",
    "phone": "938-2800",
    "bed": 0,
    "dec": 2,
    "lon": 127.0590962,
    "lat": 37.64849264
  },
  {
    "name": "하늘별소아청소년과의원",
    "address": "서울특별시 노원구 한글비석로 263, 3층 (중계동, 성모빌딩)",
    "index": "내과, 외과, 소아청소년과, 이비인후과, 피부과",
    "phone": "951-8811",
    "bed": 0,
    "dec": 1,
    "lon": 127.0735731,
    "lat": 37.65121816
  },
  {
    "name": "조우치과의원",
    "address": "서울특별시 노원구 동일로 1533, 백산빌딩 202호 (상계동)",
    "index": "치과",
    "phone": "938-7466",
    "bed": 0,
    "dec": 1,
    "lon": 127.0543296,
    "lat": 37.66534537
  },
  {
    "name": "마평수치과의원",
    "address": "서울특별시 노원구 덕릉로83길 20-4, 3층 (중계동)",
    "index": "치과",
    "phone": "936-1178",
    "bed": 0,
    "dec": 1,
    "lon": 127.0716837,
    "lat": 37.66037187
  },
  {
    "name": "류승관내과의원",
    "address": "서울특별시 노원구 공릉로46길 3, 302호 (공릉동, 평화타운)",
    "index": "내과, 소아청소년과, 가정의학과",
    "phone": "974-2466",
    "bed": 0,
    "dec": 1,
    "lon": 127.0762758,
    "lat": 37.62718117
  },
  {
    "name": "박상호의원",
    "address": "서울특별시 노원구 동일로 1280, 201호 (중계동, 시영2단지상가)",
    "index": "내과, 소아청소년과, 이비인후과",
    "phone": "02-496-9361",
    "bed": 0,
    "dec": 1,
    "lon": 127.0636775,
    "lat": 37.6427209
  },
  {
    "name": "유내과의원",
    "address": "서울특별시 노원구 마들로 31, 213호 (월계동, 그랑빌아파트)",
    "index": "내과",
    "phone": "02-948-6097",
    "bed": 0,
    "dec": 1,
    "lon": 127.065678,
    "lat": 37.61780285
  },
  {
    "name": "연세미페이스치과의원",
    "address": "서울특별시 노원구 동일로 1345, 401호 (상계동, 인천빌딩)",
    "index": "치과",
    "phone": "931-8445",
    "bed": 0,
    "dec": 1,
    "lon": 127.0589892,
    "lat": 37.64868963
  },
  {
    "name": "상쾌한아침외과의원",
    "address": "서울특별시 노원구 동일로 1401, 7층 (상계동)",
    "index": "외과",
    "phone": "3391-7775",
    "bed": 9,
    "dec": 1,
    "lon": 127.0574477,
    "lat": 37.65356503
  },
  {
    "name": "경희약손한의원",
    "address": "서울특별시 노원구 노원로 3, 206호 (공릉동, 우토파크프라자)",
    "index": "한방내과, 한방부인과, 한방소아과, 한방안·이비인후·피부과, 한방신경정신과, 침구과",
    "phone": "02-976-9075",
    "bed": 0,
    "dec": 3,
    "lon": 127.0837303,
    "lat": 37.62198677
  },
  {
    "name": "서울이잘난치과교정과치과의원",
    "address": "서울특별시 노원구 동일로 1371, 현대프라자빌딩 203호 (상계동)",
    "index": "치과교정과",
    "phone": -2225,
    "bed": 0,
    "dec": 1,
    "lon": 127.0582307,
    "lat": 37.65094551
  },
  {
    "name": "전재현한의원",
    "address": "서울특별시 노원구 석계로1길 22, 5층 (월계동, 흥우빌딩)",
    "index": "한방내과, 한방부인과, 한방소아과, 한방안·이비인후·피부과, 한방신경정신과, 한방재활의학과, 사상체질과, 침구과",
    "phone": "02-914-4080",
    "bed": 0,
    "dec": 1,
    "lon": 127.0606044,
    "lat": 37.61555772
  },
  {
    "name": "안성민치과의원",
    "address": "서울특별시 노원구 동일로 1032 (공릉동, 안성민치과의원)",
    "index": "치과",
    "phone": "02-973-8176",
    "bed": 0,
    "dec": 1,
    "lon": 127.0715572,
    "lat": 37.62238553
  },
  {
    "name": "홍한의원",
    "address": "서울특별시 노원구 상계로1길 24 (상계동)",
    "index": "한방내과, 한방부인과, 한방소아과, 한방안·이비인후·피부과, 한방신경정신과, 한방재활의학과, 사상체질과, 침구과, 한방응급과",
    "phone": "02-934-9799",
    "bed": 0,
    "dec": 1,
    "lon": 127.0588305,
    "lat": 37.65708906
  },
  {
    "name": "홍종수한의원",
    "address": "서울특별시 노원구 한글비석로 269, 마들플라자 3층 302호 (중계동)",
    "index": "한방내과, 한방부인과, 한방소아과, 한방안·이비인후·피부과, 한방신경정신과, 침구과",
    "phone": "02-951-5418",
    "bed": 0,
    "dec": 1,
    "lon": 127.0739066,
    "lat": 37.65173052
  },
  {
    "name": "신웅식내과의원",
    "address": "서울특별시 노원구 동일로 1044, 2층 (공릉동)",
    "index": "내과, 소아청소년과",
    "phone": "949-0233",
    "bed": 0,
    "dec": 1,
    "lon": 127.0711819,
    "lat": 37.62336246
  },
  {
    "name": "남미현산부인과의원",
    "address": "서울특별시 노원구 노해로 482, 7층 (상계동, 덕영빌딩)",
    "index": "산부인과",
    "phone": "938-5557",
    "bed": 0,
    "dec": 1,
    "lon": 127.058842,
    "lat": 37.65422665
  },
  {
    "name": "서울의원",
    "address": "서울특별시 노원구 월계로 370, 희성프라자 201,202호 (월계동)",
    "index": "내과, 신경과, 정형외과, 신경외과, 소아청소년과, 이비인후과, 피부과, 영상의학과",
    "phone": "02-993-2161",
    "bed": 0,
    "dec": 1,
    "lon": 127.0581239,
    "lat": 37.63093561
  },
  {
    "name": "석계정신과의원",
    "address": "서울특별시 노원구 화랑로 321, 건안빌딩 4층 (월계동)",
    "index": "정신건강의학과",
    "phone": "02-914-9361",
    "bed": 0,
    "dec": 0,
    "lon": 127.0606073,
    "lat": 37.61469279
  },
  {
    "name": "연세덴티플러스치과의원",
    "address": "서울특별시 노원구 노해로 489, IBK기업은행 7층 701호 (상계동)",
    "index": "치과",
    "phone": "02-932-9200",
    "bed": 0,
    "dec": 2,
    "lon": 127.0592735,
    "lat": 37.65492194
  },
  {
    "name": "슐다이스외과의원",
    "address": "서울특별시 노원구 동일로 1339, 3층 (상계동, 대한빌딩)",
    "index": "내과, 외과, 정형외과, 신경외과, 소아청소년과",
    "phone": "951-1119",
    "bed": 7,
    "dec": 3,
    "lon": 127.0592671,
    "lat": 37.64815884
  },
  {
    "name": "평산한의원",
    "address": "서울특별시 노원구 동일로180길 17 (공릉동)",
    "index": "한방내과, 한방부인과, 한방소아과, 한방안·이비인후·피부과, 한방신경정신과, 사상체질과, 침구과",
    "phone": "949-0301",
    "bed": 0,
    "dec": 2,
    "lon": 127.0723751,
    "lat": 37.62247371
  },
  {
    "name": "유피부과의원",
    "address": "서울특별시 노원구 동일로 1530, 205호 (상계동, 노원다모아빌딩)",
    "index": "피부과",
    "phone": "02-939-4419",
    "bed": 0,
    "dec": 1,
    "lon": 127.0551704,
    "lat": 37.66507342
  },
  {
    "name": "김준호소아과의원",
    "address": "서울특별시 노원구 섬밭로 265, 201호 (중계동, 롯데상아아파트상가)",
    "index": "소아청소년과",
    "phone": "02-973-1521",
    "bed": 0,
    "dec": 1,
    "lon": 127.0595979,
    "lat": 37.63878555
  },
  {
    "name": "고배성이비인후과의원",
    "address": "서울특별시 노원구 상계로 65 (상계동)",
    "index": "성형외과, 소아청소년과, 이비인후과, 피부과",
    "phone": "02-936-3553",
    "bed": 0,
    "dec": 1,
    "lon": 127.0593278,
    "lat": 37.65639959
  },
  {
    "name": "화진한의원",
    "address": "서울특별시 노원구 한글비석로 384, 대호프라자 301호 (중계동)",
    "index": "한방내과, 한방부인과, 한방소아과, 한방안·이비인후·피부과, 한방신경정신과, 한방재활의학과, 사상체질과, 침구과",
    "phone": "02-937-8380",
    "bed": 0,
    "dec": 2,
    "lon": 127.0704139,
    "lat": 37.65984142
  },
  {
    "name": "이형일소아과의원",
    "address": "서울특별시 노원구 한글비석로 530, 203호 (상계동, 주공12단지상가)",
    "index": "소아청소년과",
    "phone": "02-935-2320",
    "bed": 0,
    "dec": 1,
    "lon": 127.0564596,
    "lat": 37.66616609
  },
  {
    "name": "이종익내과의원",
    "address": "서울특별시 노원구 노해로 494, 206호 (상계동, 고려빌딩)",
    "index": "내과, 소아청소년과",
    "phone": "931-7007",
    "bed": 0,
    "dec": 1,
    "lon": 127.0601084,
    "lat": 37.65451136
  },
  {
    "name": "박준범치과의원",
    "address": "서울특별시 노원구 노해로 491 (상계동, 중앙빌딩)",
    "index": "치과",
    "phone": "02-937-2875",
    "bed": 0,
    "dec": 1,
    "lon": 127.0597405,
    "lat": 37.65502771
  },
  {
    "name": "초이스피부과의원",
    "address": "서울특별시 노원구 공릉로59길 28, 301호,302호,지하2호,지하7호 (하계동, 미성아파트)",
    "index": "피부과",
    "phone": "02-977-3344",
    "bed": 0,
    "dec": 2,
    "lon": 127.0666513,
    "lat": 37.63468265
  },
  {
    "name": "윤내과의원",
    "address": "서울특별시 노원구 상계로3길 10, 202호 (상계동, 한일빌딩)",
    "index": "내과, 소아청소년과",
    "phone": "934-7575",
    "bed": 0,
    "dec": 3,
    "lon": 127.0597212,
    "lat": 37.65669723
  },
  {
    "name": "하계성모의원",
    "address": "서울특별시 노원구 공릉로58가길 14, 2층 (하계동)",
    "index": "내과",
    "phone": "977-6570",
    "bed": 0,
    "dec": 1,
    "lon": 127.0699224,
    "lat": 37.63626161
  },
  {
    "name": "성문의원",
    "address": "서울특별시 노원구 석계로 9 (월계동)",
    "index": "내과",
    "phone": "919-7075",
    "bed": 0,
    "dec": 1,
    "lon": 127.0615272,
    "lat": 37.61569279
  },
  {
    "name": "서울산부인과의원",
    "address": "서울특별시 노원구 한글비석로 269, 401호 (중계동)",
    "index": "내과, 산부인과",
    "phone": "951-5588",
    "bed": 2,
    "dec": 1,
    "lon": 127.0739066,
    "lat": 37.65173052
  },
  {
    "name": "이광기치과의원",
    "address": "서울특별시 노원구 한글비석로 269, 305호 (중계동, 마들플라자)",
    "index": "구강악안면외과, 치과보철과, 치과교정과, 소아치과, 치주과, 치과보존과, 구강내과, 영상치의학과",
    "phone": "02-930-2828",
    "bed": 0,
    "dec": 1,
    "lon": 127.0739066,
    "lat": 37.65173052
  },
  {
    "name": "솔한의원",
    "address": "서울특별시 노원구 한글비석로 263, 3층 (중계동, 성모빌딩)",
    "index": "한방내과, 한방부인과, 한방소아과, 한방안·이비인후·피부과, 한방신경정신과, 침구과",
    "phone": "02-931-9422",
    "bed": 0,
    "dec": 1,
    "lon": 127.0735731,
    "lat": 37.65121816
  },
  {
    "name": "이주용안과의원",
    "address": "서울특별시 노원구 한글비석로 384, 305호 (중계동, 대호프라자)",
    "index": "안과",
    "phone": "02-934-7582",
    "bed": 0,
    "dec": 1,
    "lon": 127.0704139,
    "lat": 37.65984142
  },
  {
    "name": "정소아청소년과의원",
    "address": "서울특별시 노원구 화랑로51길 78, 2층 (공릉동, 비선아파트상가)",
    "index": "내과, 신경과, 정신건강의학과, 외과, 정형외과, 성형외과, 산부인과, 소아청소년과, 안과, 이비인후과, 피부과, 비뇨의학과, 가정의학과",
    "phone": "02-948-4552",
    "bed": 0,
    "dec": 1,
    "lon": 127.0844667,
    "lat": 37.62577367
  },
  {
    "name": "최정호이비인후과의원",
    "address": "서울특별시 노원구 한글비석로 384, 306호 (중계동, 대호프라자)",
    "index": "소아청소년과, 이비인후과",
    "phone": "933-1175",
    "bed": 0,
    "dec": 1,
    "lon": 127.0704139,
    "lat": 37.65984142
  },
  {
    "name": "하나의원",
    "address": "서울특별시 노원구 동일로 1372, 2층 (상계동, 동보빌딩)",
    "index": "내과",
    "phone": "932-1175",
    "bed": 0,
    "dec": 1,
    "lon": 127.0589421,
    "lat": 37.65109879
  },
  {
    "name": "박경빈치과의원",
    "address": "서울특별시 노원구 섬밭로 263, 롯데상가 209호 (중계동)",
    "index": "치과",
    "phone": "974-6422",
    "bed": 0,
    "dec": 1,
    "lon": 127.0595979,
    "lat": 37.63878555
  },
  {
    "name": "우경한의원",
    "address": "서울특별시 노원구 상계로 51, 노원프라자빌딩 401호 (상계동)",
    "index": "한방내과, 한방부인과, 한방소아과, 한방안·이비인후·피부과, 한방신경정신과, 침구과",
    "phone": "02-938-2772",
    "bed": 0,
    "dec": 2,
    "lon": 127.0579327,
    "lat": 37.65604414
  },
  {
    "name": "정성원치과의원",
    "address": "서울특별시 노원구 노원로 540, 201호 (상계동, 상계주공아파트 9단지상가)",
    "index": "치과",
    "phone": "02-937-0001",
    "bed": 0,
    "dec": 1,
    "lon": 127.0565054,
    "lat": 37.66145743
  },
  {
    "name": "유진상내과의원",
    "address": "서울특별시 노원구 한글비석로 269, 301호 (중계동, 마들프라자)",
    "index": "내과",
    "phone": "930-8433",
    "bed": 0,
    "dec": 3,
    "lon": 127.0739066,
    "lat": 37.65173052
  },
  {
    "name": "이준영피부과의원",
    "address": "서울특별시 노원구 동일로 1101, 3층 (공릉동)",
    "index": "피부과",
    "phone": "978-0074",
    "bed": 0,
    "dec": 1,
    "lon": 127.0683826,
    "lat": 37.6281413
  },
  {
    "name": "서울부부치과의원",
    "address": "서울특별시 노원구 동일로 1392, 2층 (상계동, 경원빌딩)",
    "index": "치과",
    "phone": "952-4961",
    "bed": 0,
    "dec": 1,
    "lon": 127.0584803,
    "lat": 37.65305829
  },
  {
    "name": "연세본치과의원",
    "address": "서울특별시 노원구 상계로1길 38, 4층 (상계동)",
    "index": "치과",
    "phone": "951-2875",
    "bed": 0,
    "dec": 1,
    "lon": 127.058828,
    "lat": 37.65771731
  },
  {
    "name": "김영걸치과의원",
    "address": "서울특별시 노원구 동일로 1356, 201호 (상계동, 주공4단지상가)",
    "index": "치과",
    "phone": "931-9112",
    "bed": 0,
    "dec": 1,
    "lon": 127.0593273,
    "lat": 37.65006549
  },
  {
    "name": "나비드치과의원",
    "address": "서울특별시 노원구 동일로 1665, 4층 (상계동, 대은빌딩)",
    "index": "치과",
    "phone": "02-938-7961",
    "bed": 0,
    "dec": 1,
    "lon": 127.05192,
    "lat": 37.67723954
  },
  {
    "name": "임명준안과의원",
    "address": "서울특별시 노원구 공릉로59길 28, 3층 2호 (하계동, 미성상가)",
    "index": "안과",
    "phone": "973-6394",
    "bed": 0,
    "dec": 1,
    "lon": 127.0666513,
    "lat": 37.63468265
  },
  {
    "name": "박민주치과의원",
    "address": "서울특별시 노원구 공릉로 206, 2층 (공릉동, 동부아파트)",
    "index": "구강악안면외과, 치과보철과, 치과교정과, 치주과, 치과보존과",
    "phone": "02-974-2928",
    "bed": 0,
    "dec": 1,
    "lon": 127.0757273,
    "lat": 37.62807703
  },
  {
    "name": "한재준치과의원",
    "address": "서울특별시 노원구 동일로 1649, 6층 (상계동)",
    "index": "치과",
    "phone": "937-7522",
    "bed": 0,
    "dec": 1,
    "lon": 127.0521232,
    "lat": 37.67565511
  },
  {
    "name": "백두산한의원",
    "address": "서울특별시 노원구 노원로 236, 삼화빌딩 (하계동)",
    "index": "한방내과, 한방부인과, 한방소아과, 한방안·이비인후·피부과, 한방신경정신과, 침구과",
    "phone": "02-978-0102",
    "bed": 0,
    "dec": 2,
    "lon": 127.0722663,
    "lat": 37.63911645
  },
  {
    "name": "홍익한의원",
    "address": "서울특별시 노원구 한글비석로 396, 108동 232호 (상계동, 벽산아파트)",
    "index": "한방내과, 한방부인과, 한방소아과, 한방안·이비인후·피부과, 한방신경정신과, 침구과",
    "phone": "02-939-6311",
    "bed": 0,
    "dec": 1,
    "lon": 127.0699321,
    "lat": 37.6614726
  },
  {
    "name": "제이내과의원",
    "address": "서울특별시 노원구 한글비석로 365, 3층,4층 (중계동)",
    "index": "내과, 소아청소년과, 가정의학과",
    "phone": "937-0090",
    "bed": 0,
    "dec": 2,
    "lon": 127.0713935,
    "lat": 37.65820876
  },
  {
    "name": "중앙치과의원",
    "address": "서울특별시 노원구 덕릉로 780, 202호 (상계동, 상계동아불암아파트)",
    "index": "치과",
    "phone": "936-7964",
    "bed": 0,
    "dec": 1,
    "lon": 127.0767983,
    "lat": 37.66695677
  },
  {
    "name": "손치과의원",
    "address": "서울특별시 노원구 화랑로 463, 3층 (공릉동, 정이빌딩)",
    "index": "치과",
    "phone": "02-972-0821",
    "bed": 0,
    "dec": 1,
    "lon": 127.0757619,
    "lat": 37.6190271
  },
  {
    "name": "심재철치과의원",
    "address": "서울특별시 노원구 상계로23다길 13-8, 101동 124호 (상계동, 노원아이파크)",
    "index": "치과",
    "phone": "937-0094",
    "bed": 0,
    "dec": 1,
    "lon": 127.0662696,
    "lat": 37.65978391
  },
  {
    "name": "이관철이비인후과의원",
    "address": "서울특별시 노원구 석계로 4 (월계동)",
    "index": "이비인후과",
    "phone": "916-6281",
    "bed": 0,
    "dec": 1,
    "lon": 127.0619686,
    "lat": 37.61523057
  },
  {
    "name": "불암한의원",
    "address": "서울특별시 노원구 한글비석로 254, 대명프라자 3층 (중계동)",
    "index": "한방내과, 한방부인과, 한방소아과, 한방안·이비인후·피부과, 한방신경정신과, 침구과",
    "phone": "02-933-3660",
    "bed": 0,
    "dec": 1,
    "lon": 127.0742002,
    "lat": 37.65040827
  },
  {
    "name": "성북치과의원",
    "address": "서울특별시 노원구 광운로 64 (월계동)",
    "index": "치과",
    "phone": "918-2250",
    "bed": 0,
    "dec": 1,
    "lon": 127.0572802,
    "lat": 37.62282803
  },
  {
    "name": "경희인한의원",
    "address": "서울특별시 노원구 섬밭로 263, 롯데상가 207호 (중계동)",
    "index": "한방내과, 한방부인과, 한방소아과, 한방안·이비인후·피부과, 한방신경정신과, 침구과",
    "phone": "02-949-3375",
    "bed": 0,
    "dec": 1,
    "lon": 127.0595979,
    "lat": 37.63878555
  },
  {
    "name": "김종섭한의원",
    "address": "서울특별시 노원구 동일로 1280, 중계무지개아파트2단지상가 207호 (중계동)",
    "index": "한방내과, 한방부인과, 한방소아과, 한방신경정신과, 침구과",
    "phone": "02-977-8433",
    "bed": 0,
    "dec": 2,
    "lon": 127.0636775,
    "lat": 37.6427209
  },
  {
    "name": "박성원치과의원",
    "address": "서울특별시 노원구 중계로 184, 201호 (중계동, 중계종합상가)",
    "index": "구강악안면외과, 치과보철과, 소아치과, 치주과, 치과보존과, 영상치의학과",
    "phone": "02-936-6292",
    "bed": 0,
    "dec": 1,
    "lon": 127.0766533,
    "lat": 37.65193173
  },
  {
    "name": "정미치과의원",
    "address": "서울특별시 노원구 공릉로59길 15 (하계동, 웅천종합상가)",
    "index": "치과",
    "phone": "02-979-2875",
    "bed": 0,
    "dec": 1,
    "lon": 127.0681695,
    "lat": 37.63319655
  },
  {
    "name": "좋은치과의원",
    "address": "서울특별시 노원구 동일로 1021, 4층 (공릉동, 하이서울빌딩)",
    "index": "치과",
    "phone": "02-974-6647",
    "bed": 0,
    "dec": 1,
    "lon": 127.0711799,
    "lat": 37.62126589
  },
  {
    "name": "영재한의원",
    "address": "서울특별시 노원구 한글비석로 227 (중계동)",
    "index": "한방내과, 한방부인과, 한방소아과, 한방안·이비인후·피부과, 한방신경정신과, 침구과",
    "phone": "02-952-3266",
    "bed": 0,
    "dec": 1,
    "lon": 127.0733854,
    "lat": 37.64790071
  },
  {
    "name": "고성종의원",
    "address": "서울특별시 노원구 석계로9길 33 (월계동)",
    "index": "내과",
    "phone": "942-2872",
    "bed": 0,
    "dec": 1,
    "lon": 127.0597485,
    "lat": 37.61670104
  },
  {
    "name": "미치과의원",
    "address": "서울특별시 노원구 한글비석로 254, 306호 (중계동, 대명프라자)",
    "index": "구강악안면외과, 치과보철과, 치과교정과, 소아치과, 치주과, 치과보존과, 구강내과, 영상치의학과",
    "phone": "952-2875",
    "bed": 0,
    "dec": 1,
    "lon": 127.0742002,
    "lat": 37.65040827
  },
  {
    "name": "박치과의원",
    "address": "서울특별시 노원구 동일로 1280, 201호 (중계동)",
    "index": "치과",
    "phone": "971-0006",
    "bed": 0,
    "dec": 1,
    "lon": 127.0636775,
    "lat": 37.6427209
  },
  {
    "name": "조인치과의원",
    "address": "서울특별시 노원구 석계로 9, 2층 (월계동)",
    "index": "치과",
    "phone": "912-4563",
    "bed": 0,
    "dec": 1,
    "lon": 127.0615272,
    "lat": 37.61569279
  },
  {
    "name": "상계한의원",
    "address": "서울특별시 노원구 덕릉로 738, 3층 (상계동, 정진145빌딩)",
    "index": "한방내과, 한방부인과, 한방소아과, 한방안·이비인후·피부과, 한방신경정신과, 한방재활의학과, 사상체질과, 침구과",
    "phone": "02-930-3344",
    "bed": 0,
    "dec": 1,
    "lon": 127.0733611,
    "lat": 37.66341968
  },
  {
    "name": "중계성모정형외과의원",
    "address": "서울특별시 노원구 한글비석로 263, 2층 (중계동)",
    "index": "내과, 외과, 정형외과, 비뇨의학과, 영상의학과, 재활의학과",
    "phone": "937-3727",
    "bed": 0,
    "dec": 1,
    "lon": 127.0735731,
    "lat": 37.65121816
  },
  {
    "name": "안호범성형외과의원",
    "address": "서울특별시 노원구 동일로 1413, 4층 (상계동, 남성빌딩)",
    "index": "성형외과",
    "phone": "932-2222",
    "bed": 1,
    "dec": 1,
    "lon": 127.0571268,
    "lat": 37.65476572
  },
  {
    "name": "박가정의원",
    "address": "서울특별시 노원구 상계로27길 15 (상계동, 석경빌딩)",
    "index": "내과, 정신건강의학과, 외과, 정형외과, 산부인과, 이비인후과, 피부과, 재활의학과",
    "phone": 29364644,
    "bed": 0,
    "dec": 2,
    "lon": 127.067303,
    "lat": 37.6592078
  },
  {
    "name": "한마음의원",
    "address": "서울특별시 노원구 덕릉로 730, 3층 (상계동, 불암대림아파트내 상가)",
    "index": "내과, 외과, 정형외과, 재활의학과",
    "phone": "935-7582",
    "bed": 12,
    "dec": 2,
    "lon": 127.0742657,
    "lat": 37.66321195
  },
  {
    "name": "고려의원",
    "address": "서울특별시 노원구 상계로 309-1, 명륜빌딩 (상계동)",
    "index": "내과, 정형외과, 소아청소년과, 피부과, 비뇨의학과",
    "phone": "02-3391-7215",
    "bed": 0,
    "dec": 2,
    "lon": 127.0771217,
    "lat": 37.67087977
  },
  {
    "name": "현치과의원",
    "address": "서울특별시 노원구 공릉로 187, 2층 (공릉동)",
    "index": "치과",
    "phone": "974-2827",
    "bed": 0,
    "dec": 1,
    "lon": 127.0760062,
    "lat": 37.62644434
  },
  {
    "name": "예인치과의원",
    "address": "서울특별시 노원구 동일로197길 23 (공릉동, 정호빌딩)",
    "index": "치과",
    "phone": "02-977-2828",
    "bed": 0,
    "dec": 2,
    "lon": 127.0671659,
    "lat": 37.6283676
  },
  {
    "name": "성신한의원",
    "address": "서울특별시 노원구 석계로 6, 1,2층 (월계동)",
    "index": "한방내과, 한방부인과, 한방소아과, 한방안·이비인후·피부과, 한방신경정신과, 한방재활의학과, 사상체질과, 침구과",
    "phone": "02-913-1141",
    "bed": 0,
    "dec": 2,
    "lon": 127.0618674,
    "lat": 37.61547954
  },
  {
    "name": "김영헌정신과의원",
    "address": "서울특별시 노원구 동일로 1550, 208호 (상계동, 고려프라자)",
    "index": "신경과, 정신건강의학과",
    "phone": "02-952-3735",
    "bed": 0,
    "dec": 1,
    "lon": 127.0546904,
    "lat": 37.66691776
  },
  {
    "name": "최의원",
    "address": "서울특별시 노원구 동일로 1551, 301호 (상계동, 삼전빌딩)",
    "index": "피부과, 비뇨의학과",
    "phone": "952-7575",
    "bed": 0,
    "dec": 1,
    "lon": 127.053947,
    "lat": 37.66688377
  },
  {
    "name": "함영백소아과의원",
    "address": "서울특별시 노원구 동일로 1361, 202동207호 (상계동, 주공2단지상가)",
    "index": "소아청소년과",
    "phone": "02-952-3318",
    "bed": 0,
    "dec": 1,
    "lon": 127.0584233,
    "lat": 37.64990472
  },
  {
    "name": "이필상정형외과의원",
    "address": "서울특별시 노원구 한글비석로 253, 301호 (중계동, 세신프라자빌딩)",
    "index": "내과, 신경과, 외과, 정형외과, 신경외과, 비뇨의학과, 재활의학과",
    "phone": "02-937-8275",
    "bed": 0,
    "dec": 1,
    "lon": 127.07346,
    "lat": 37.65042424
  },
  {
    "name": "명인치과의원",
    "address": "서울특별시 노원구 상계로27길 12, 3층 (상계동, 경인빌딩)",
    "index": "치과",
    "phone": "02-936-2875",
    "bed": 0,
    "dec": 1,
    "lon": 127.0678467,
    "lat": 37.65916932
  },
  {
    "name": "나철한의원",
    "address": "서울특별시 노원구 석계로 105 (월계동)",
    "index": "한방내과, 한방부인과, 한방소아과, 한방안·이비인후·피부과, 한방신경정신과, 한방재활의학과, 사상체질과, 침구과",
    "phone": "02-912-2697",
    "bed": 0,
    "dec": 1,
    "lon": 127.0576622,
    "lat": 37.62285662
  },
  {
    "name": "필치과의원",
    "address": "서울특별시 노원구 동일로207길 186, 3층 (하계동, 학여울청구아파트상가)",
    "index": "치과",
    "phone": "971-2875",
    "bed": 0,
    "dec": 1,
    "lon": 127.0584496,
    "lat": 37.63634961
  },
  {
    "name": "명주한의원",
    "address": "서울특별시 노원구 노원로 449, 명주빌딩 4층 (상계동)",
    "index": "한방내과, 한방부인과, 한방소아과, 한방안·이비인후·피부과, 한방신경정신과, 침구과",
    "phone": "02-951-7766",
    "bed": 0,
    "dec": 1,
    "lon": 127.0635538,
    "lat": 37.65666731
  },
  {
    "name": "사계절한의원",
    "address": "서울특별시 노원구 상계로1길 74, 동진상가 201호 (상계동)",
    "index": "한방내과, 한방부인과, 한방소아과, 한방안·이비인후·피부과, 한방신경정신과, 한방재활의학과, 사상체질과, 침구과",
    "phone": "02-938-9876",
    "bed": 0,
    "dec": 1,
    "lon": 127.0586367,
    "lat": 37.65940599
  },
  {
    "name": "이지성형외과의원",
    "address": "서울특별시 노원구 노해로 494, 3층 (상계동, 고려빌딩)",
    "index": "성형외과",
    "phone": "02-952-5225",
    "bed": 0,
    "dec": 1,
    "lon": 127.0601084,
    "lat": 37.65451136
  },
  {
    "name": "연세스마일치과의원",
    "address": "서울특별시 노원구 중계로 217, 중계중흥빌딩 4층 (중계동)",
    "index": "구강악안면외과, 치과보철과, 치과교정과, 소아치과, 치주과, 치과보존과, 구강내과, 영상치의학과, 통합치의학과",
    "phone": "02-931-2666",
    "bed": 0,
    "dec": 2,
    "lon": 127.0730951,
    "lat": 37.65048754
  },
  {
    "name": "하얀미소치과교정과치과의원",
    "address": "서울특별시 노원구 상계로 64, 4층 2호 (상계동)",
    "index": "치과",
    "phone": "931-0428",
    "bed": 0,
    "dec": 1,
    "lon": 127.0594362,
    "lat": 37.65568166
  },
  {
    "name": "중계우리들의원",
    "address": "서울특별시 노원구 한글비석로 235, 하나프라자빌딩 401호,402호,403호 (중계동)",
    "index": "내과, 신경과, 마취통증의학과, 소아청소년과, 피부과, 가정의학과",
    "phone": "02-931-8270",
    "bed": 0,
    "dec": 1,
    "lon": 127.0734483,
    "lat": 37.64876489
  },
  {
    "name": "수치과의원",
    "address": "서울특별시 노원구 동일로 1323, 하라프라자센타 205호 (상계동)",
    "index": "치과, 통합치의학과",
    "phone": "02-935-2879",
    "bed": 0,
    "dec": 1,
    "lon": 127.0597341,
    "lat": 37.6467423
  },
  {
    "name": "벽계한의원",
    "address": "서울특별시 노원구 공릉로59길 15, 3층 (하계동)",
    "index": "한방내과, 한방부인과, 한방소아과, 한방안·이비인후·피부과, 한방신경정신과, 한방재활의학과, 사상체질과, 침구과",
    "phone": "02-948-8275",
    "bed": 0,
    "dec": 1,
    "lon": 127.0681695,
    "lat": 37.63319655
  },
  {
    "name": "문가정의학과의원",
    "address": "서울특별시 노원구 한글비석로48길 6, 205호 (상계동, 한신2차상가)",
    "index": "가정의학과",
    "phone": "951-3553",
    "bed": 0,
    "dec": 2,
    "lon": 127.0651525,
    "lat": 37.66477931
  },
  {
    "name": "동산치과의원",
    "address": "서울특별시 노원구 동일로 1078, 2층 (공릉동, 대경상운)",
    "index": "치과",
    "phone": "02-949-7528",
    "bed": 0,
    "dec": 1,
    "lon": 127.0701126,
    "lat": 37.62628426
  },
  {
    "name": "명치과의원",
    "address": "서울특별시 노원구 덕릉로 781, 3층 (상계동, 삼보빌딩)",
    "index": "치과",
    "phone": "02-932-5445",
    "bed": 0,
    "dec": 1,
    "lon": 127.0754134,
    "lat": 37.66696259
  },
  {
    "name": "상계연세소아과의원",
    "address": "서울특별시 노원구 한글비석로 384, 320호 (중계동, 대호프라자)",
    "index": "내과, 소아청소년과, 이비인후과",
    "phone": "02-931-5400",
    "bed": 0,
    "dec": 2,
    "lon": 127.0704139,
    "lat": 37.65984142
  },
  {
    "name": "엘림소아청소년과의원",
    "address": "서울특별시 노원구 한글비석로 250, 219호 (중계동, 그린코아빌딩)",
    "index": "내과, 소아청소년과, 이비인후과",
    "phone": "930-9343",
    "bed": 0,
    "dec": 1,
    "lon": 127.0741173,
    "lat": 37.64998909
  },
  {
    "name": "김희규이비인후과의원",
    "address": "서울특별시 노원구 동일로 1101, 3층 (공릉동, 하니빌딩)",
    "index": "이비인후과",
    "phone": "974-6592",
    "bed": 0,
    "dec": 2,
    "lon": 127.0683826,
    "lat": 37.6281413
  },
  {
    "name": "공릉참편한의원",
    "address": "서울특별시 노원구 노원로 43, 1층 (공릉동, 대광빌딩)",
    "index": "정형외과, 신경외과, 재활의학과",
    "phone": "070-4680-3875",
    "bed": 0,
    "dec": 1,
    "lon": 127.0828948,
    "lat": 37.62541164
  },
  {
    "name": "열린성모정신건강의학과의원",
    "address": "서울특별시 노원구 한글비석로 384 (중계동, 대호프라자)",
    "index": "내과, 신경과, 정신건강의학과, 정형외과, 신경외과, 소아청소년과, 피부과, 비뇨의학과, 재활의학과",
    "phone": "937-9114",
    "bed": 0,
    "dec": 1,
    "lon": 127.0704139,
    "lat": 37.65984142
  },
  {
    "name": "메디홈즈의원",
    "address": "서울특별시 노원구 공릉로 173, 2층, 지하1층 (공릉동)",
    "index": "내과, 외과, 정형외과, 소아청소년과, 재활의학과, 가정의학과",
    "phone": 29789922,
    "bed": 0,
    "dec": 2,
    "lon": 127.0768161,
    "lat": 37.62535145
  },
  {
    "name": "척척정형외과의원",
    "address": "서울특별시 노원구 동일로 1036, 제이더블유빌딩 2층 (공릉동)",
    "index": "내과, 외과, 정형외과, 소아청소년과, 재활의학과",
    "phone": "971-2272",
    "bed": 4,
    "dec": 1,
    "lon": 127.0714747,
    "lat": 37.62260006
  },
  {
    "name": "스마일치과의원",
    "address": "서울특별시 노원구 동일로 1538, 205호 (상계동, 12단지 종합상가)",
    "index": "치과",
    "phone": "935-8177",
    "bed": 0,
    "dec": 1,
    "lon": 127.0550115,
    "lat": 37.66599725
  },
  {
    "name": "상계가정의원",
    "address": "서울특별시 노원구 상계로 306 (상계동)",
    "index": "가정의학과",
    "phone": "934-8375",
    "bed": 0,
    "dec": 1,
    "lon": 127.0768715,
    "lat": 37.67023626
  },
  {
    "name": "실로암의원",
    "address": "서울특별시 노원구 초안산로 19 (월계동)",
    "index": "내과",
    "phone": "995-9953",
    "bed": 0,
    "dec": 1,
    "lon": 127.0512501,
    "lat": 37.6295689
  },
  {
    "name": "구인당한의원",
    "address": "서울특별시 노원구 노원로22길 77 (중계동, 건영아파트)",
    "index": "한방내과, 한방부인과, 한방소아과, 한방안·이비인후·피부과, 침구과",
    "phone": "02-930-1525",
    "bed": 0,
    "dec": 1,
    "lon": 127.0714051,
    "lat": 37.64858823
  },
  {
    "name": "고운이치과의원",
    "address": "서울특별시 노원구 덕릉로60길 188, 2층 (월계동)",
    "index": "치과",
    "phone": "998-7528",
    "bed": 0,
    "dec": 1,
    "lon": 127.0409738,
    "lat": 37.6324813
  },
  {
    "name": "고운이치과의원",
    "address": "서울특별시 노원구 노원로1길 9, 3층 (공릉동, 해중빌딩)",
    "index": "치과",
    "phone": "972-4700",
    "bed": 0,
    "dec": 1,
    "lon": 127.0835029,
    "lat": 37.62219248
  },
  {
    "name": "서울모아치과의원",
    "address": "서울특별시 노원구 동일로 1554, 303호 (상계동, 다래빌딩)",
    "index": "구강악안면외과, 치과보철과, 치과교정과, 소아치과, 치주과, 치과보존과, 구강내과, 영상치의학과, 구강병리과, 예방치과",
    "phone": "02-935-2804",
    "bed": 0,
    "dec": 1,
    "lon": 127.0546257,
    "lat": 37.66718695
  },
  {
    "name": "피터팬치과의원",
    "address": "서울특별시 노원구 동일로 1018, 4층 (공릉동, 태주빌딩)",
    "index": "치과",
    "phone": "02-971-2275",
    "bed": 0,
    "dec": 1,
    "lon": 127.0719804,
    "lat": 37.6209933
  },
  {
    "name": "아이맘정신건강의학과의원",
    "address": "서울특별시 노원구 노해로 482, 3층 (상계동, 덕영빌딩)",
    "index": "정신건강의학과",
    "phone": "951-0270",
    "bed": 0,
    "dec": 1,
    "lon": 127.058842,
    "lat": 37.65422665
  },
  {
    "name": "노원경희한의원",
    "address": "서울특별시 노원구 동일로 1363, 202,203,204호 (상계동)",
    "index": "한방내과, 한방부인과, 한방소아과, 한방안·이비인후·피부과, 한방신경정신과, 한방재활의학과, 사상체질과, 침구과",
    "phone": "02-951-3336",
    "bed": 0,
    "dec": 2,
    "lon": 127.0583754,
    "lat": 37.65041786
  },
  {
    "name": "김기중내과의원",
    "address": "서울특별시 노원구 덕릉로 781 (상계동)",
    "index": "내과",
    "phone": "939-8317",
    "bed": 0,
    "dec": 1,
    "lon": 127.0752982,
    "lat": 37.66702474
  },
  {
    "name": "온누리정형외과의원",
    "address": "서울특별시 노원구 덕릉로 669, 세양빌딩 2층 (중계동)",
    "index": "내과, 외과, 정형외과, 신경외과, 재활의학과",
    "phone": "02-932-7575",
    "bed": 26,
    "dec": 2,
    "lon": 127.0716918,
    "lat": 37.65737909
  },
  {
    "name": "코아한의원",
    "address": "서울특별시 노원구 동일로204가길 34 (중계동, 302호,303호)",
    "index": "한방내과, 한방부인과, 한방소아과, 한방안·이비인후·피부과, 한방신경정신과, 한방재활의학과, 사상체질과, 침구과",
    "phone": "02-3296-0270",
    "bed": 0,
    "dec": 1,
    "lon": 127.0653461,
    "lat": 37.64074925
  },
  {
    "name": "이피부과의원",
    "address": "서울특별시 노원구 한글비석로 474, 보람상가203호 (상계동)",
    "index": "피부과",
    "phone": "937-2345",
    "bed": 0,
    "dec": 1,
    "lon": 127.0625823,
    "lat": 37.66485696
  },
  {
    "name": "대한체육회부속의원",
    "address": "서울특별시 노원구 화랑로 727 (공릉동, 대한체육회선수촌)",
    "index": "재활의학과, 가정의학과",
    "phone": "02-970-0062",
    "bed": 0,
    "dec": 2,
    "lon": 127.0945691,
    "lat": 37.63621655
  },
  {
    "name": "연세미치과의원",
    "address": "서울특별시 노원구 석계로9길 25, 2층 (월계동)",
    "index": "치과",
    "phone": "913-2275",
    "bed": 0,
    "dec": 1,
    "lon": 127.0600549,
    "lat": 37.61695028
  },
  {
    "name": "동의보감한의원",
    "address": "서울특별시 노원구 월계로45길 28, 2층 2호 (월계동)",
    "index": "한방내과, 한방부인과, 한방소아과, 한방안·이비인후·피부과, 한방신경정신과, 한방재활의학과, 사상체질과, 침구과",
    "phone": "02-998-2500",
    "bed": 0,
    "dec": 1,
    "lon": 127.0483636,
    "lat": 37.62694078
  },
  {
    "name": "이종립한의원",
    "address": "서울특별시 노원구 한글비석로 471 (상계동, 상계빌딩)",
    "index": "한방내과, 한방부인과, 한방소아과, 한방안·이비인후·피부과, 한방신경정신과, 한방재활의학과, 사상체질과, 침구과",
    "phone": "02-939-7575",
    "bed": 0,
    "dec": 1,
    "lon": 127.0626752,
    "lat": 37.66411845
  },
  {
    "name": "세화소아청소년과의원",
    "address": "서울특별시 노원구 화랑로 325, 2층 (월계동, 우현빌딩)",
    "index": "내과, 소아청소년과, 이비인후과, 피부과",
    "phone": "02-914-7575",
    "bed": 0,
    "dec": 1,
    "lon": 127.0611612,
    "lat": 37.61490731
  },
  {
    "name": "시중한의원",
    "address": "서울특별시 노원구 한글비석로52길 18 (상계동)",
    "index": "한방내과, 한방부인과, 한방소아과, 한방안·이비인후·피부과, 한방신경정신과, 한방재활의학과, 사상체질과, 침구과",
    "phone": "02-932-2281",
    "bed": 0,
    "dec": 1,
    "lon": 127.0636365,
    "lat": 37.66529886
  },
  {
    "name": "퀸스메디산부인과의원",
    "address": "서울특별시 노원구 동일로 1059 (공릉동)",
    "index": "산부인과",
    "phone": "2289-2800",
    "bed": 27,
    "dec": 28,
    "lon": 127.0700336,
    "lat": 37.62451942
  },
  {
    "name": "퀸스메디소아청소년과의원",
    "address": "서울특별시 노원구 동일로 1059 (공릉동)",
    "index": "내과, 소아청소년과, 이비인후과",
    "phone": "948-7599",
    "bed": 0,
    "dec": 6,
    "lon": 127.0700336,
    "lat": 37.62451942
  },
  {
    "name": "공릉제일마취과의원",
    "address": "서울특별시 노원구 섬밭로 156 (공릉동, 공릉2단지아파트)",
    "index": "마취통증의학과",
    "phone": "02-979-2004",
    "bed": 0,
    "dec": 2,
    "lon": 127.0665402,
    "lat": 37.63027399
  },
  {
    "name": "오치과의원",
    "address": "서울특별시 노원구 한글비석로 401, 광세당약국 (상계동)",
    "index": "치과",
    "phone": "938-6954",
    "bed": 0,
    "dec": 1,
    "lon": 127.068575,
    "lat": 37.66059372
  },
  {
    "name": "안이비인후과의원",
    "address": "서울특별시 노원구 한글비석로 253, 303호 (중계동, 세신프라자)",
    "index": "이비인후과",
    "phone": "930-3880",
    "bed": 0,
    "dec": 1,
    "lon": 127.07346,
    "lat": 37.65042424
  },
  {
    "name": "성모안과의원",
    "address": "서울특별시 노원구 한글비석로 253, 202호 (중계동, 세신프라자)",
    "index": "안과",
    "phone": "934-1113",
    "bed": 0,
    "dec": 1,
    "lon": 127.07346,
    "lat": 37.65042424
  },
  {
    "name": "태극한의원",
    "address": "서울특별시 노원구 동일로 1374, 미산빌딩 301호 (상계동)",
    "index": "한방내과, 한방부인과, 한방소아과, 한방안·이비인후·피부과, 한방신경정신과, 침구과",
    "phone": 29313336,
    "bed": 0,
    "dec": 1,
    "lon": 127.0588918,
    "lat": 37.65130715
  },
  {
    "name": "한세외과의원",
    "address": "서울특별시 노원구 동일로 1624, 통일상가 (상계동)",
    "index": "내과, 외과, 정형외과, 소아청소년과, 비뇨의학과",
    "phone": "02-939-3993",
    "bed": 0,
    "dec": 1,
    "lon": 127.0529682,
    "lat": 37.6733668
  },
  {
    "name": "이재용치과의원",
    "address": "서울특별시 노원구 동일로 1426, 204호 (상계동, 미도빌딩)",
    "index": "치과",
    "phone": "02-932-7204",
    "bed": 0,
    "dec": 1,
    "lon": 127.0576566,
    "lat": 37.65600281
  },
  {
    "name": "예감치과의원",
    "address": "서울특별시 노원구 동일로207길 18, 206호 (중계동, 그린아파트B상가)",
    "index": "치과",
    "phone": "02-979-2828",
    "bed": 0,
    "dec": 1,
    "lon": 127.0603917,
    "lat": 37.64437127
  },
  {
    "name": "경희해독한의원",
    "address": "서울특별시 노원구 동일로 1701, 207호 (상계동, 희성오피앙)",
    "index": "한방내과, 한방부인과, 한방소아과, 한방안·이비인후·피부과, 한방신경정신과, 침구과",
    "phone": "933-3926",
    "bed": 0,
    "dec": 1,
    "lon": 127.0519987,
    "lat": 37.68027003
  },
  {
    "name": "조성욱치과의원",
    "address": "서울특별시 노원구 동일로 1393, 일신프라자 4층 404호 (상계동)",
    "index": "치과",
    "phone": "951-8275",
    "bed": 0,
    "dec": 1,
    "lon": 127.0576249,
    "lat": 37.65294149
  },
  {
    "name": "임지연소아청소년과의원",
    "address": "서울특별시 노원구 공릉로32길 56, 2층 (공릉동)",
    "index": "내과, 소아청소년과, 안과, 이비인후과, 피부과, 가정의학과",
    "phone": "972-5724",
    "bed": 0,
    "dec": 1,
    "lon": 127.0793965,
    "lat": 37.62169966
  },
  {
    "name": "서울안과의원",
    "address": "서울특별시 노원구 동일로 1401, 303호 (상계동, 상아빌딩)",
    "index": "안과",
    "phone": "951-1231",
    "bed": 0,
    "dec": 1,
    "lon": 127.0574477,
    "lat": 37.65356503
  },
  {
    "name": "서울치과의원",
    "address": "서울특별시 노원구 상계로 309-1, 명륜빌딩 4층 (상계동)",
    "index": "치과",
    "phone": "02-3391-5989",
    "bed": 0,
    "dec": 1,
    "lon": 127.0771217,
    "lat": 37.67087977
  },
  {
    "name": "서울한의원",
    "address": "서울특별시 노원구 노원로34길 116, 서울한의원 (상계동)",
    "index": "한방내과, 한방부인과, 한방소아과, 한방안·이비인후·피부과, 한방신경정신과, 침구과",
    "phone": "02-3391-4477",
    "bed": 0,
    "dec": 2,
    "lon": 127.0634428,
    "lat": 37.66411786
  },
  {
    "name": "효성한의원",
    "address": "서울특별시 노원구 상계로27길 15 (상계동, 석경빌딩)",
    "index": "한방내과, 한방부인과, 한방소아과, 한방안·이비인후·피부과, 한방신경정신과, 침구과",
    "phone": "02-3391-6133",
    "bed": 0,
    "dec": 1,
    "lon": 127.067303,
    "lat": 37.6592078
  },
  {
    "name": "중계의원",
    "address": "서울특별시 노원구 덕릉로 662, 206호 (중계동, 주공3단지내상가)",
    "index": "외과",
    "phone": "938-9491",
    "bed": 0,
    "dec": 2,
    "lon": 127.0732779,
    "lat": 37.65660343
  },
  {
    "name": "이홍석한의원",
    "address": "서울특별시 노원구 마들로 111 (월계동, 삼호종합상가)",
    "index": "한방내과, 한방부인과, 한방소아과, 한방안·이비인후·피부과, 한방신경정신과, 한방재활의학과, 사상체질과, 침구과",
    "phone": "02-973-7533",
    "bed": 0,
    "dec": 1,
    "lon": 127.0625257,
    "lat": 37.62459059
  },
  {
    "name": "연세내과의원",
    "address": "서울특별시 노원구 노해로 492, 501호,502호 (상계동)",
    "index": "내과, 소아청소년과",
    "phone": "952-6671",
    "bed": 0,
    "dec": 4,
    "lon": 127.0597984,
    "lat": 37.65444083
  },
  {
    "name": "공봉택성형외과의원",
    "address": "서울특별시 노원구 노해로 490, 303호 (상계동, 길빌딩)",
    "index": "성형외과",
    "phone": "932-6767",
    "bed": 0,
    "dec": 1,
    "lon": 127.0595367,
    "lat": 37.65438189
  },
  {
    "name": "김희섭의원",
    "address": "서울특별시 노원구 석계로15길 9, 성북빌딩 4층 2호 (월계동)",
    "index": "내과",
    "phone": "02-943-1706",
    "bed": 0,
    "dec": 1,
    "lon": 127.0581644,
    "lat": 37.62264045
  },
  {
    "name": "김덕치과의원",
    "address": "서울특별시 노원구 노원로 257, 인정빌딩 (하계동)",
    "index": "치과",
    "phone": "977-7337",
    "bed": 0,
    "dec": 1,
    "lon": 127.0698488,
    "lat": 37.64026075
  },
  {
    "name": "바른재활의학과의원",
    "address": "서울특별시 노원구 동일로 1066, 노원새마을금고 (공릉동)",
    "index": "내과, 신경과, 정형외과, 재활의학과",
    "phone": "02-976-5454",
    "bed": 0,
    "dec": 1,
    "lon": 127.0705619,
    "lat": 37.62527699
  },
  {
    "name": "장대국내과의원",
    "address": "서울특별시 노원구 노해로 452, 노빌리안골드 (상계동)",
    "index": "내과",
    "phone": "02-934-9454",
    "bed": 0,
    "dec": 1,
    "lon": 127.0555375,
    "lat": 37.6534879
  },
  {
    "name": "현대가정의학과의원",
    "address": "서울특별시 노원구 동일로237나길 1, 1층 (상계동)",
    "index": "가정의학과",
    "phone": "937-2636",
    "bed": 0,
    "dec": 1,
    "lon": 127.0505472,
    "lat": 37.67375547
  },
  {
    "name": "강북이지함피부과의원",
    "address": "서울특별시 노원구 노해로 457, 은성빌딩 2층 (상계동)",
    "index": "피부과",
    "phone": "939-4700",
    "bed": 0,
    "dec": 3,
    "lon": 127.0558546,
    "lat": 37.65420432
  },
  {
    "name": "박재순신경정신과의원",
    "address": "서울특별시 노원구 노해로 501, 304호 (상계동, 노원빌딩)",
    "index": "신경과, 정신건강의학과, 가정의학과",
    "phone": "952-5200",
    "bed": 0,
    "dec": 1,
    "lon": 127.0606676,
    "lat": 37.65522772
  },
  {
    "name": "수정한의원",
    "address": "서울특별시 노원구 동일로 1374, 미산빌딩 6층 (상계동)",
    "index": "한방내과, 한방부인과, 한방소아과, 한방안·이비인후·피부과, 한방신경정신과, 침구과",
    "phone": "02-932-3815",
    "bed": 0,
    "dec": 1,
    "lon": 127.0588918,
    "lat": 37.65130715
  },
  {
    "name": "아름다운여성의원",
    "address": "서울특별시 노원구 한글비석로 383, 2층 201호,202호 (중계동, 삼창프라자)",
    "index": "산부인과, 피부과",
    "phone": "936-0374",
    "bed": 1,
    "dec": 1,
    "lon": 127.0697706,
    "lat": 37.65897035
  },
  {
    "name": "수락신경외과의원",
    "address": "서울특별시 노원구 노해로 452, 401호,402호 (상계동)",
    "index": "내과, 외과, 정형외과, 신경외과, 소아청소년과, 비뇨의학과",
    "phone": "3392-4582",
    "bed": 0,
    "dec": 4,
    "lon": 127.0555375,
    "lat": 37.6534879
  },
  {
    "name": "김이비인후과의원",
    "address": "서울특별시 노원구 동일로 1669, 3층 (상계동, 삼천리수락프라자)",
    "index": "이비인후과",
    "phone": "934-9034",
    "bed": 0,
    "dec": 1,
    "lon": 127.0519659,
    "lat": 37.67747556
  },
  {
    "name": "꿈동산치과의원",
    "address": "서울특별시 노원구 노해로 452, 501호,502호 (상계동, 노빌리안골드)",
    "index": "치과",
    "phone": "952-2816",
    "bed": 0,
    "dec": 1,
    "lon": 127.0555375,
    "lat": 37.6534879
  },
  {
    "name": "다사랑산부인과의원",
    "address": "서울특별시 노원구 화랑로 321, 2층 (월계동, 건안빌딩)",
    "index": "산부인과",
    "phone": "912-2518~9",
    "bed": 4,
    "dec": 1,
    "lon": 127.0606073,
    "lat": 37.61469279
  },
  {
    "name": "모모한의원",
    "address": "서울특별시 노원구 동일로 1549, 3층 (상계동, 양성빌딩)",
    "index": "한방내과, 한방부인과, 한방소아과, 한방안·이비인후·피부과, 한방신경정신과, 사상체질과, 침구과",
    "phone": "02-951-7512",
    "bed": 0,
    "dec": 1,
    "lon": 127.0539907,
    "lat": 37.66671612
  },
  {
    "name": "서울성형외과의원",
    "address": "서울특별시 노원구 노해로 482, 3층 (상계동, 덕영빌딩)",
    "index": "성형외과",
    "phone": "02-3392-2222",
    "bed": 0,
    "dec": 1,
    "lon": 127.058842,
    "lat": 37.65422665
  },
  {
    "name": "김영돈여성외과의원",
    "address": "서울특별시 노원구 동일로 1371, 5층 (상계동)",
    "index": "외과",
    "phone": "952-8822",
    "bed": 3,
    "dec": 1,
    "lon": 127.0582307,
    "lat": 37.65094551
  },
  {
    "name": "제일정형외과의원",
    "address": "서울특별시 노원구 화랑로 463 (공릉동)",
    "index": "내과, 정형외과, 신경외과, 피부과, 비뇨의학과, 영상의학과",
    "phone": "976-4506",
    "bed": 0,
    "dec": 1,
    "lon": 127.0757619,
    "lat": 37.6190271
  },
  {
    "name": "장현대치과의원",
    "address": "서울특별시 노원구 수락산로 190, 202호 (상계동, 희락주상복합건물)",
    "index": "치과",
    "phone": "02-951-2825",
    "bed": 0,
    "dec": 1,
    "lon": 127.0543403,
    "lat": 37.67117861
  },
  {
    "name": "배민득치과의원",
    "address": "서울특별시 노원구 월계로 370, 희성프라자 303호 (월계동)",
    "index": "치과",
    "phone": 29786686,
    "bed": 0,
    "dec": 1,
    "lon": 127.0581239,
    "lat": 37.63093561
  },
  {
    "name": "박규희산부인과의원",
    "address": "서울특별시 노원구 동일로 1530, 204호 (상계동, 다모아빌딛)",
    "index": "산부인과",
    "phone": "932-0700",
    "bed": 0,
    "dec": 1,
    "lon": 127.0551704,
    "lat": 37.66507342
  },
  {
    "name": "양영종치과의원",
    "address": "서울특별시 노원구 동일로 1101 (공릉동, 하니빌딩)",
    "index": "치과",
    "phone": "02-976-7528",
    "bed": 0,
    "dec": 1,
    "lon": 127.0683826,
    "lat": 37.6281413
  },
  {
    "name": "평화내과의원",
    "address": "서울특별시 노원구 화랑로 337, 5층 1호,2호 (월계동)",
    "index": "내과",
    "phone": "919-8131",
    "bed": 0,
    "dec": 10,
    "lon": 127.0622393,
    "lat": 37.61528425
  },
  {
    "name": "상계예일내과의원",
    "address": "서울특별시 노원구 한글비석로 384, 313,314호 (중계동, 대호프라자)",
    "index": "내과",
    "phone": 29308131,
    "bed": 0,
    "dec": 1,
    "lon": 127.0704139,
    "lat": 37.65984142
  },
  {
    "name": "박성제내과의원",
    "address": "서울특별시 노원구 동일로 1545 (상계동)",
    "index": "내과, 소아청소년과, 이비인후과, 영상의학과, 진단검사의학과",
    "phone": "932-3375",
    "bed": 0,
    "dec": 1,
    "lon": 127.0540781,
    "lat": 37.66637995
  },
  {
    "name": "연세피부과의원",
    "address": "서울특별시 노원구 동일로 1529, 301호 (상계동, 합동빌딩)",
    "index": "피부과",
    "phone": "934-0998",
    "bed": 0,
    "dec": 1,
    "lon": 127.0544102,
    "lat": 37.66509813
  },
  {
    "name": "평화치과의원",
    "address": "서울특별시 노원구 공릉로46길 3, 2층 (공릉동, 공릉동평화타운)",
    "index": "구강악안면외과, 치과보철과, 치과교정과, 소아치과, 치주과, 치과보존과, 구강내과, 영상치의학과, 구강병리과, 예방치과, 통합치의학과",
    "phone": "02-949-2875",
    "bed": 0,
    "dec": 1,
    "lon": 127.0762758,
    "lat": 37.62718117
  },
  {
    "name": "삼송한의원",
    "address": "서울특별시 노원구 동일로 1078, 대경상운 2층 (공릉동)",
    "index": "한방내과, 한방부인과, 한방소아과, 한방안·이비인후·피부과, 한방신경정신과, 한방재활의학과, 사상체질과, 침구과",
    "phone": "02-978-8041",
    "bed": 0,
    "dec": 1,
    "lon": 127.0701126,
    "lat": 37.62628426
  },
  {
    "name": "선진한의원",
    "address": "서울특별시 노원구 광운로 52, 세영전자학원 301호 (월계동)",
    "index": "한방내과, 한방부인과, 한방소아과, 한방안·이비인후·피부과, 한방신경정신과, 침구과",
    "phone": "02-979-1025~6",
    "bed": 0,
    "dec": 1,
    "lon": 127.0568297,
    "lat": 37.62192464
  },
  {
    "name": "오승희산부인과의원",
    "address": "서울특별시 노원구 한글비석로 384, 308호 (중계동)",
    "index": "산부인과",
    "phone": "938-3313",
    "bed": 0,
    "dec": 1,
    "lon": 127.0704139,
    "lat": 37.65984142
  },
  {
    "name": "닥터김의원",
    "address": "서울특별시 노원구 노원로 331, 203호 (중계동, 목련아파트 단지내상가)",
    "index": "내과, 정형외과, 소아청소년과, 이비인후과, 피부과, 비뇨의학과",
    "phone": "978-5519",
    "bed": 0,
    "dec": 1,
    "lon": 127.0661201,
    "lat": 37.64650863
  },
  {
    "name": "홍치과의원",
    "address": "서울특별시 노원구 노원로 449, 명주빌딩 4층 (상계동)",
    "index": "치과",
    "phone": "3391-2275",
    "bed": 0,
    "dec": 1,
    "lon": 127.0635538,
    "lat": 37.65666731
  },
  {
    "name": "약손한의원",
    "address": "서울특별시 노원구 덕릉로 781, 2층 (상계동, 삼보빌딩)",
    "index": "한방내과, 한방부인과, 한방소아과, 한방안·이비인후·피부과, 한방신경정신과, 한방재활의학과, 사상체질과, 침구과, 한방응급과",
    "phone": "02-3391-1075",
    "bed": 0,
    "dec": 1,
    "lon": 127.0752982,
    "lat": 37.66702474
  },
  {
    "name": "희락서울가정의학과의원",
    "address": "서울특별시 노원구 수락산로 190, 203호 (상계동, 희락상가)",
    "index": "내과, 신경과, 외과, 소아청소년과, 이비인후과, 피부과",
    "phone": "937-1982",
    "bed": 0,
    "dec": 1,
    "lon": 127.0543403,
    "lat": 37.67117861
  },
  {
    "name": "늘사랑의원",
    "address": "서울특별시 노원구 노원로16길 15, 상가동 1층 101,102,103호 (하계동, 중계주공9단지아파트)",
    "index": "내과, 외과, 정형외과, 소아청소년과, 이비인후과, 피부과, 비뇨의학과",
    "phone": "02-979-0311",
    "bed": 0,
    "dec": 3,
    "lon": 127.0714604,
    "lat": 37.64279789
  },
  {
    "name": "허브치과의원",
    "address": "서울특별시 노원구 노해로 467, 교보빌딩 11층 (상계동)",
    "index": "치과",
    "phone": "02-933-2854",
    "bed": 0,
    "dec": 1,
    "lon": 127.0570371,
    "lat": 37.65448142
  },
  {
    "name": "기쁜가정의학과의원",
    "address": "서울특별시 노원구 노원로 257, 4층 (하계동)",
    "index": "내과, 신경과, 외과, 정형외과, 소아청소년과, 이비인후과, 피부과, 가정의학과",
    "phone": "02-971-4913",
    "bed": 0,
    "dec": 1,
    "lon": 127.0698488,
    "lat": 37.64026075
  },
  {
    "name": "서울경희한의원",
    "address": "서울특별시 노원구 동일로192길 10, 2층 (공릉동)",
    "index": "한방내과, 한방부인과, 한방소아과, 한방안·이비인후·피부과, 한방신경정신과, 한방재활의학과, 사상체질과, 침구과",
    "phone": "02-948-3933",
    "bed": 0,
    "dec": 1,
    "lon": 127.07089,
    "lat": 37.62571544
  },
  {
    "name": "e-편한치과의원",
    "address": "서울특별시 노원구 동일로227길 26 (상계동, 상계주공15단지아파트)",
    "index": "치과",
    "phone": "02-930-0028",
    "bed": 0,
    "dec": 1,
    "lon": 127.0508352,
    "lat": 37.66878326
  },
  {
    "name": "우리의원",
    "address": "서울특별시 노원구 상계로27길 7, 3,4층 (상계동, 중앙빌딩)",
    "index": "내과, 정신건강의학과, 외과, 정형외과, 마취통증의학과, 소아청소년과, 이비인후과, 피부과, 재활의학과, 가정의학과",
    "phone": 233927575,
    "bed": 0,
    "dec": 1,
    "lon": 127.0677212,
    "lat": 37.65891044
  },
  {
    "name": "하얀J피부과의원",
    "address": "서울특별시 노원구 한글비석로 253, 304호 (중계동, 세신프라자빌딩)",
    "index": "피부과",
    "phone": "02-933-3145",
    "bed": 0,
    "dec": 1,
    "lon": 127.07346,
    "lat": 37.65042424
  },
  {
    "name": "참사랑한의원",
    "address": "서울특별시 노원구 공릉로32길 4 (공릉동)",
    "index": "한방내과, 한방부인과, 한방소아과, 한방안·이비인후·피부과, 침구과",
    "phone": "02-973-9373",
    "bed": 0,
    "dec": 1,
    "lon": 127.0764562,
    "lat": 37.62198589
  },
  {
    "name": "이고른치과의원",
    "address": "서울특별시 노원구 섬밭로 258, 5층 (중계동)",
    "index": "치과",
    "phone": "949-1022",
    "bed": 0,
    "dec": 1,
    "lon": 127.0618644,
    "lat": 37.63882672
  },
  {
    "name": "서울H치과의원",
    "address": "서울특별시 노원구 노해로 485, 301호 (상계동, 금정빌딩)",
    "index": "치과",
    "phone": "02-935-2882",
    "bed": 0,
    "dec": 3,
    "lon": 127.0590451,
    "lat": 37.65487369
  },
  {
    "name": "이원재한의원",
    "address": "서울특별시 노원구 한글비석로 242, 3층 (중계동)",
    "index": "한방내과, 한방부인과, 한방소아과, 한방안·이비인후·피부과, 한방신경정신과, 한방재활의학과, 사상체질과, 침구과",
    "phone": "02-952-1075",
    "bed": 0,
    "dec": 1,
    "lon": 127.0740733,
    "lat": 37.64930968
  },
  {
    "name": "시원한이비인후과의원",
    "address": "서울특별시 노원구 동일로204가길 34, 305호 (중계동, 씨앤미빌딩)",
    "index": "소아청소년과, 이비인후과",
    "phone": "971-3631",
    "bed": 0,
    "dec": 1,
    "lon": 127.0653461,
    "lat": 37.64074925
  },
  {
    "name": "행복한피부과의원",
    "address": "서울특별시 노원구 노해로 485, 5층 (상계동, 금정빌딩)",
    "index": "피부과",
    "phone": 29322255,
    "bed": 0,
    "dec": 1,
    "lon": 127.0590451,
    "lat": 37.65487369
  },
  {
    "name": "이스마일치과의원",
    "address": "서울특별시 노원구 덕릉로 730, 2층1호 (상계동, 상계불암 대림아파트상가)",
    "index": "치과",
    "phone": "952-8020",
    "bed": 0,
    "dec": 1,
    "lon": 127.0742657,
    "lat": 37.66321195
  },
  {
    "name": "선정신과의원",
    "address": "서울특별시 노원구 동일로204가길 34, 307호 (중계동, 씨앤미복합빌딩)",
    "index": "내과, 신경과, 정신건강의학과",
    "phone": "02-948-4482",
    "bed": 0,
    "dec": 1,
    "lon": 127.0653461,
    "lat": 37.64074925
  },
  {
    "name": "고은소아청소년과의원",
    "address": "서울특별시 노원구 공릉로59길 15, 3층 (하계동, 웅천상가)",
    "index": "내과, 소아청소년과, 이비인후과",
    "phone": "974-4475",
    "bed": 0,
    "dec": 1,
    "lon": 127.0681695,
    "lat": 37.63319655
  },
  {
    "name": "조은치과의원",
    "address": "서울특별시 노원구 덕릉로 698, 2층 (중계동)",
    "index": "치과",
    "phone": "952-8478",
    "bed": 0,
    "dec": 2,
    "lon": 127.0727675,
    "lat": 37.65983813
  },
  {
    "name": "열린이비인후과의원",
    "address": "서울특별시 노원구 공릉로 187, 301호 (공릉동, 건설빌딩)",
    "index": "이비인후과",
    "phone": "3296-5075",
    "bed": 0,
    "dec": 1,
    "lon": 127.0760062,
    "lat": 37.62644434
  },
  {
    "name": "밴스의원",
    "address": "서울특별시 노원구 노해로 491, 중앙빌딩 3층 (상계동)",
    "index": "성형외과, 피부과",
    "phone": "02-951-1603",
    "bed": 0,
    "dec": 1,
    "lon": 127.0597405,
    "lat": 37.65502771
  },
  {
    "name": "우리가족한의원",
    "address": "서울특별시 노원구 동일로 1541, 201호 (상계동, 주공11단지상가)",
    "index": "한방내과, 한방부인과, 한방소아과, 한방안·이비인후·피부과, 침구과",
    "phone": "02-934-3705",
    "bed": 0,
    "dec": 1,
    "lon": 127.0541367,
    "lat": 37.66585559
  },
  {
    "name": "소망한의원",
    "address": "서울특별시 노원구 동일로 1402, 기업빌딩 5층 2호 (상계동)",
    "index": "한방내과, 한방부인과, 한방소아과, 한방안·이비인후·피부과, 한방신경정신과, 한방재활의학과, 사상체질과, 침구과",
    "phone": "02-930-6001",
    "bed": 0,
    "dec": 1,
    "lon": 127.0582784,
    "lat": 37.6537521
  },
  {
    "name": "연세주치과의원",
    "address": "서울특별시 노원구 누원로 22 (상계동, 수락리버시티4단지 크로바프라자201호)",
    "index": "구강악안면외과, 치과보철과, 치과교정과, 소아치과, 치주과, 치과보존과, 구강내과, 영상치의학과, 구강병리과, 예방치과, 통합치의학과",
    "phone": "02-933-2228",
    "bed": 0,
    "dec": 1,
    "lon": 127.0502844,
    "lat": 37.68703486
  },
  {
    "name": "기독한의원",
    "address": "서울특별시 노원구 동일로 1379, 다모아빌딩 204호 (상계동)",
    "index": "한방내과, 한방부인과, 한방소아과, 한방안·이비인후·피부과, 한방신경정신과, 한방재활의학과, 사상체질과, 침구과",
    "phone": "02-939-3330",
    "bed": 0,
    "dec": 1,
    "lon": 127.0579887,
    "lat": 37.65180055
  },
  {
    "name": "참사랑의원",
    "address": "서울특별시 노원구 누원로 22 (상계동, 수락리버시티4단지 크로바프라자203호)",
    "index": "내과, 소아청소년과, 이비인후과, 피부과",
    "phone": "02-933-7575",
    "bed": 0,
    "dec": 1,
    "lon": 127.0502844,
    "lat": 37.68703486
  },
  {
    "name": "보스안과의원",
    "address": "서울특별시 노원구 한글비석로 264, 302호, 303호 (중계동)",
    "index": "안과",
    "phone": "933-0019",
    "bed": 1,
    "dec": 1,
    "lon": 127.0742733,
    "lat": 37.65097495
  },
  {
    "name": "백내과의원",
    "address": "서울특별시 노원구 동일로 1003, 2층 (공릉동)",
    "index": "내과",
    "phone": "977-3833",
    "bed": 0,
    "dec": 1,
    "lon": 127.0717584,
    "lat": 37.61971088
  },
  {
    "name": "필한의원",
    "address": "서울특별시 노원구 덕릉로 730, 205호 (상계동, 상계불암대림아파트)",
    "index": "한방내과, 한방부인과, 한방소아과, 한방안·이비인후·피부과, 한방신경정신과, 한방재활의학과, 사상체질과, 침구과",
    "phone": "02-936-9244",
    "bed": 0,
    "dec": 1,
    "lon": 127.0742657,
    "lat": 37.66321195
  },
  {
    "name": "연세임플치과교정과치과의원",
    "address": "서울특별시 노원구 동일로 1676, 4층 (상계동)",
    "index": "치과",
    "phone": "932-2228",
    "bed": 0,
    "dec": 1,
    "lon": 127.0528296,
    "lat": 37.67796216
  },
  {
    "name": "경희정담한의원",
    "address": "서울특별시 노원구 덕릉로 780, 2층 (상계동, 동아불암아파트상가)",
    "index": "한방내과, 한방부인과, 한방소아과, 한방안·이비인후·피부과, 한방신경정신과, 한방재활의학과, 사상체질과, 침구과",
    "phone": "951-5575",
    "bed": 0,
    "dec": 1,
    "lon": 127.0767983,
    "lat": 37.66695677
  },
  {
    "name": "이대희서울치과의원",
    "address": "서울특별시 노원구 노해로 482, 3층 (상계동, 덕영빌딩)",
    "index": "치과",
    "phone": "952-5030",
    "bed": 0,
    "dec": 2,
    "lon": 127.058842,
    "lat": 37.65422665
  },
  {
    "name": "소재진한의원",
    "address": "서울특별시 노원구 월계로 370, 304호 (월계동, 희성플라자)",
    "index": "한방내과, 한방부인과, 한방소아과, 한방안·이비인후·피부과, 침구과",
    "phone": "02-978-1075",
    "bed": 0,
    "dec": 2,
    "lon": 127.0581239,
    "lat": 37.63093561
  },
  {
    "name": "최비뇨기과의원",
    "address": "서울특별시 노원구 동일로192길 87 (공릉동)",
    "index": "비뇨의학과",
    "phone": "977-7719",
    "bed": 0,
    "dec": 1,
    "lon": 127.0746739,
    "lat": 37.62770279
  },
  {
    "name": "태능성심정신건강의학과의원",
    "address": "서울특별시 노원구 동일로 987, 2층 (공릉동)",
    "index": "내과, 신경과, 정신건강의학과",
    "phone": "979-5757",
    "bed": 0,
    "dec": 1,
    "lon": 127.0721058,
    "lat": 37.61825784
  },
  {
    "name": "서울하이치과의원",
    "address": "서울특별시 노원구 동일로 1689, 204호 (상계동, 하이베라스)",
    "index": "치과",
    "phone": "3391-8275",
    "bed": 0,
    "dec": 1,
    "lon": 127.0519963,
    "lat": 37.67911939
  },
  {
    "name": "스마트의원",
    "address": "서울특별시 노원구 노원로 330, 3층 (중계동, 롯데마트중계점)",
    "index": "내과, 소아청소년과, 이비인후과, 피부과",
    "phone": "952-8866",
    "bed": 0,
    "dec": 1,
    "lon": 127.0673847,
    "lat": 37.6472955
  },
  {
    "name": "나무한의원",
    "address": "서울특별시 노원구 노원로 330, 3층 (중계동, 롯데마트중계점)",
    "index": "한방내과, 한방부인과, 한방소아과, 한방안·이비인후·피부과, 한방신경정신과, 한방재활의학과, 사상체질과, 침구과",
    "phone": "02-3392-1077",
    "bed": 0,
    "dec": 1,
    "lon": 127.0682,
    "lat": 37.64654838
  },
  {
    "name": "에스엔(SN)재활의학과의원",
    "address": "서울특별시 노원구 월계로 370, 4층 402~404호 (월계동, 희성프라자)",
    "index": "내과, 신경과, 외과, 정형외과, 신경외과, 마취통증의학과, 소아청소년과, 피부과, 비뇨의학과, 재활의학과",
    "phone": "02-949-7755",
    "bed": 0,
    "dec": 1,
    "lon": 127.0581239,
    "lat": 37.63093561
  },
  {
    "name": "상계대항외과의원",
    "address": "서울특별시 노원구 노해로 494, 602,603호 (상계동, 고려빌딩)",
    "index": "내과, 외과",
    "phone": "939-0114",
    "bed": 0,
    "dec": 4,
    "lon": 127.0601084,
    "lat": 37.65451136
  },
  {
    "name": "경희허브한의원",
    "address": "서울특별시 노원구 중계로 160, 211호 (중계동, 화인상가)",
    "index": "한방내과, 한방부인과, 한방소아과, 한방안·이비인후·피부과, 한방신경정신과, 한방재활의학과, 사상체질과, 침구과",
    "phone": "952-3177",
    "bed": 0,
    "dec": 1,
    "lon": 127.0784529,
    "lat": 37.6494326
  },
  {
    "name": "백소아과의원",
    "address": "서울특별시 노원구 동일로 1689, 2층 (상계동, 하이베라스)",
    "index": "소아청소년과",
    "phone": "02-933-1775",
    "bed": 0,
    "dec": 1,
    "lon": 127.0519963,
    "lat": 37.67911939
  },
  {
    "name": "서영택치과의원",
    "address": "서울특별시 노원구 월계로45길 21, 202호 (월계동, 롯데캐슬상가)",
    "index": "치과",
    "phone": "996-7528",
    "bed": 0,
    "dec": 1,
    "lon": 127.0469022,
    "lat": 37.62654717
  },
  {
    "name": "세일정형외과의원",
    "address": "서울특별시 노원구 동일로203가길 29 (중계동, 브라운스톤중계)",
    "index": "내과, 외과, 정형외과, 신경외과",
    "phone": "02-952-7770",
    "bed": 0,
    "dec": 1,
    "lon": 127.0613672,
    "lat": 37.63993623
  },
  {
    "name": "맑고밝은이비인후과의원",
    "address": "서울특별시 노원구 마들로 31, 204호 (월계동, 그랑빌@제주상가동)",
    "index": "내과, 소아청소년과, 안과, 이비인후과, 피부과",
    "phone": "975-3308",
    "bed": 0,
    "dec": 1,
    "lon": 127.065678,
    "lat": 37.61780285
  },
  {
    "name": "조세종치과의원",
    "address": "서울특별시 노원구 동일로 1541, 202호 (상계동, 상계주공아파트11단지종합상가)",
    "index": "치과",
    "phone": "934-2828",
    "bed": 0,
    "dec": 1,
    "lon": 127.0541367,
    "lat": 37.66585559
  },
  {
    "name": "노원백비뇨기과의원",
    "address": "서울특별시 노원구 노해로 501, 501,602호 (상계동, 노원빌딩)",
    "index": "피부과, 비뇨의학과",
    "phone": "02-931-6363",
    "bed": 3,
    "dec": 1,
    "lon": 127.0606676,
    "lat": 37.65522772
  },
  {
    "name": "서울리더스치과의원",
    "address": "서울특별시 노원구 화랑로 337, 2층 (월계동, 인현빌딩)",
    "index": "치과",
    "phone": "6406-2275",
    "bed": 0,
    "dec": 1,
    "lon": 127.0622393,
    "lat": 37.61528425
  },
  {
    "name": "휴플러스치과의원",
    "address": "서울특별시 노원구 한글비석로 77, 2층 (하계동)",
    "index": "치과",
    "phone": "974-2275",
    "bed": 0,
    "dec": 1,
    "lon": 127.0675744,
    "lat": 37.63759571
  },
  {
    "name": "이가정의학과의원",
    "address": "서울특별시 노원구 동일로227길 86, 2층 (상계동, 상록아파트상가)",
    "index": "내과, 외과, 소아청소년과, 이비인후과, 가정의학과",
    "phone": "932-5312",
    "bed": 0,
    "dec": 2,
    "lon": 127.0508352,
    "lat": 37.66878326
  },
  {
    "name": "강북연세미치과의원",
    "address": "서울특별시 노원구 동일로 1548, 5층 (상계동)",
    "index": "치과",
    "phone": "930-1983",
    "bed": 0,
    "dec": 1,
    "lon": 127.0547583,
    "lat": 37.66667369
  },
  {
    "name": "엔유아이씨(N-UIC)치과의원",
    "address": "서울특별시 노원구 한글비석로 265, 401호 (중계동, 영광프라자)",
    "index": "치과",
    "phone": "951-2872",
    "bed": 0,
    "dec": 1,
    "lon": 127.0736652,
    "lat": 37.65144646
  },
  {
    "name": "이미지치과의원",
    "address": "서울특별시 노원구 마들로3길 15, 2층 (월계동, 이마트내)",
    "index": "치과",
    "phone": "02-949-2735",
    "bed": 0,
    "dec": 1,
    "lon": 127.058968,
    "lat": 37.62734055
  },
  {
    "name": "미소사랑치과의원",
    "address": "서울특별시 노원구 한글비석로 383, 2층 3,4호 (중계동, 삼창타워프라자)",
    "index": "치과",
    "phone": "02-3391-2875",
    "bed": 0,
    "dec": 1,
    "lon": 127.0697706,
    "lat": 37.65897035
  },
  {
    "name": "캘리포니아치과의원",
    "address": "서울특별시 노원구 동일로204가길 34, 301호 (중계동, 씨앤미)",
    "index": "치과",
    "phone": "948-2275",
    "bed": 0,
    "dec": 1,
    "lon": 127.0653461,
    "lat": 37.64074925
  },
  {
    "name": "무척신통한의원",
    "address": "서울특별시 노원구 노해로 482, 7층 (상계동, 덕영빌딩)",
    "index": "한방내과, 한방부인과, 한방소아과, 한방안·이비인후·피부과, 한방신경정신과, 한방재활의학과, 침구과",
    "phone": "02-933-7582",
    "bed": 0,
    "dec": 1,
    "lon": 127.058842,
    "lat": 37.65422665
  },
  {
    "name": "아비쥬의원",
    "address": "서울특별시 노원구 동일로 1417, 삼양빌딩 2(201호), 5층 (상계동)",
    "index": "성형외과, 피부과, 가정의학과",
    "phone": 215440377,
    "bed": 0,
    "dec": 5,
    "lon": 127.0570693,
    "lat": 37.65509367
  },
  {
    "name": "파티마의원",
    "address": "서울특별시 노원구 중계로 160, 화인상가아파트 (중계동)",
    "index": "내과, 정형외과, 소아청소년과, 이비인후과, 피부과, 비뇨의학과, 영상의학과, 가정의학과",
    "phone": "02-933-0081",
    "bed": 0,
    "dec": 2,
    "lon": 127.0784529,
    "lat": 37.6494326
  },
  {
    "name": "서울본치과의원",
    "address": "서울특별시 노원구 동일로 1371, 2층 (상계동, 현대프라자)",
    "index": "치과",
    "phone": "931-2227",
    "bed": 0,
    "dec": 1,
    "lon": 127.0582307,
    "lat": 37.65094551
  },
  {
    "name": "한의원혜민서",
    "address": "서울특별시 노원구 동일로 1689, 2층 (상계동, 하이베라스)",
    "index": "한방내과, 한방부인과, 한방소아과, 한방안·이비인후·피부과, 한방신경정신과, 한방재활의학과, 사상체질과, 침구과, 한방응급과",
    "phone": "3392-1075",
    "bed": 0,
    "dec": 1,
    "lon": 127.0519963,
    "lat": 37.67911939
  },
  {
    "name": "수광한의원",
    "address": "서울특별시 노원구 상계로 97, 401호 (상계동, 위너스타워)",
    "index": "한방내과, 한방부인과, 한방소아과, 한방안·이비인후·피부과, 한방신경정신과, 한방재활의학과, 사상체질과, 침구과, 한방응급과",
    "phone": "935-4565",
    "bed": 0,
    "dec": 1,
    "lon": 127.0627663,
    "lat": 37.65710186
  },
  {
    "name": "라임치과의원",
    "address": "서울특별시 노원구 석계로 102, 3층 (월계동)",
    "index": "치과",
    "phone": "942-2828",
    "bed": 0,
    "dec": 2,
    "lon": 127.0580487,
    "lat": 37.62329638
  },
  {
    "name": "월계수한의원",
    "address": "서울특별시 노원구 석계로 95, 2층 (월계동, 성북빌딩)",
    "index": "한방내과, 한방부인과, 한방소아과, 한방신경정신과, 한방재활의학과, 사상체질과, 침구과",
    "phone": "02-911-9277",
    "bed": 0,
    "dec": 1,
    "lon": 127.0582991,
    "lat": 37.62287293
  },
  {
    "name": "경희나린한의원",
    "address": "서울특별시 노원구 동일로 1676, 2층 (상계동, 한사랑메디컬빌딩)",
    "index": "한방내과, 한방부인과, 한방소아과, 한방안·이비인후·피부과, 한방신경정신과, 한방재활의학과, 사상체질과, 침구과",
    "phone": "02-939-5824",
    "bed": 0,
    "dec": 1,
    "lon": 127.0528296,
    "lat": 37.67796216
  },
  {
    "name": "미담한의원",
    "address": "서울특별시 노원구 마들로3길 15, 2층 (월계동, 월계이마트)",
    "index": "한방내과, 한방부인과, 한방소아과, 한방안·이비인후·피부과, 한방신경정신과, 한방재활의학과, 사상체질과, 침구과",
    "phone": "02-976-3375",
    "bed": 0,
    "dec": 1,
    "lon": 127.058968,
    "lat": 37.62734055
  },
  {
    "name": "보명한의원",
    "address": "서울특별시 노원구 동일로 1384, 208호 (상계동, 주공6단지아파트상가)",
    "index": "한방내과, 한방부인과, 한방소아과, 한방안·이비인후·피부과, 한방신경정신과, 한방재활의학과, 사상체질과, 침구과",
    "phone": "02-930-7582",
    "bed": 0,
    "dec": 1,
    "lon": 127.0586454,
    "lat": 37.65254408
  },
  {
    "name": "경원한의원",
    "address": "서울특별시 노원구 화랑로 463, 3층 (공릉동)",
    "index": "한방내과, 한방부인과, 한방소아과, 한방안·이비인후·피부과, 한방신경정신과, 한방재활의학과, 사상체질과, 침구과",
    "phone": "02-974-4641",
    "bed": 0,
    "dec": 1,
    "lon": 127.0757619,
    "lat": 37.6190271
  },
  {
    "name": "은혜부부치과의원",
    "address": "서울특별시 노원구 공릉로46길 6 (공릉동)",
    "index": "치과",
    "phone": "949-7542",
    "bed": 0,
    "dec": 2,
    "lon": 127.0766048,
    "lat": 37.62687887
  },
  {
    "name": "서울용치과의원",
    "address": "서울특별시 노원구 한글비석로 359, 4층 (중계동)",
    "index": "치과",
    "phone": "939-9995",
    "bed": 0,
    "dec": 1,
    "lon": 127.071806,
    "lat": 37.65769776
  },
  {
    "name": "바른이비인후과의원",
    "address": "서울특별시 노원구 동일로203가길 29, 260~262호 (중계동, 브라운스톤중계)",
    "index": "이비인후과",
    "phone": "02-976-2400",
    "bed": 2,
    "dec": 2,
    "lon": 127.0613672,
    "lat": 37.63993623
  },
  {
    "name": "토론토행복치과의원",
    "address": "서울특별시 노원구 공릉로 149 (공릉동)",
    "index": "치과",
    "phone": "974-2804",
    "bed": 0,
    "dec": 1,
    "lon": 127.076406,
    "lat": 37.62344261
  },
  {
    "name": "경희모세한의원",
    "address": "서울특별시 노원구 상계로 311 (상계동)",
    "index": "한방내과, 한방부인과, 한방소아과, 한방안·이비인후·피부과, 한방신경정신과, 한방재활의학과, 사상체질과, 침구과",
    "phone": "02-931-9315",
    "bed": 0,
    "dec": 1,
    "lon": 127.0773343,
    "lat": 37.67092479
  },
  {
    "name": "연세프렌즈소아청소년과의원",
    "address": "서울특별시 노원구 동일로 1392, 3층 (상계동)",
    "index": "소아청소년과",
    "phone": "951-7900",
    "bed": 0,
    "dec": 1,
    "lon": 127.0584803,
    "lat": 37.65305829
  },
  {
    "name": "서울삼성내과의원",
    "address": "서울특별시 노원구 동일로 1547, 3층 (상계동, 시몬빌딩)",
    "index": "내과, 소아청소년과, 이비인후과, 피부과, 비뇨의학과, 영상의학과, 진단검사의학과",
    "phone": "939-2227,935-2227",
    "bed": 0,
    "dec": 1,
    "lon": 127.0540319,
    "lat": 37.66655731
  },
  {
    "name": "자연과한의원",
    "address": "서울특별시 노원구 동일로 1417, 2층 (상계동, 삼양빌딩)",
    "index": "한방내과, 한방부인과, 한방소아과, 한방안·이비인후·피부과, 한방신경정신과, 한방재활의학과, 사상체질과, 침구과",
    "phone": 29511357,
    "bed": 0,
    "dec": 1,
    "lon": 127.0570693,
    "lat": 37.65509367
  },
  {
    "name": "석계치과의원",
    "address": "서울특별시 노원구 석계로 2, 2층 202호 (월계동)",
    "index": "치과",
    "phone": "02-912-2275",
    "bed": 0,
    "dec": 1,
    "lon": 127.0619686,
    "lat": 37.61523057
  },
  {
    "name": "노원성모안과의원",
    "address": "서울특별시 노원구 동일로 1101, 6층 (공릉동, 하니빌딩)",
    "index": "안과",
    "phone": "972-4235",
    "bed": 0,
    "dec": 2,
    "lon": 127.0683826,
    "lat": 37.6281413
  },
  {
    "name": "새하늘이비인후과의원",
    "address": "서울특별시 노원구 동일로 1548 (상계동)",
    "index": "내과, 소아청소년과, 이비인후과",
    "phone": "951-9518",
    "bed": 0,
    "dec": 3,
    "lon": 127.0547583,
    "lat": 37.66667369
  },
  {
    "name": "방용석한의원",
    "address": "서울특별시 노원구 동일로 1101, 3층 (공릉동, 하니빌딩)",
    "index": "한방내과, 한방부인과, 한방소아과, 한방안·이비인후·피부과, 한방신경정신과, 한방재활의학과, 사상체질과, 침구과, 한방응급과",
    "phone": "02-975-1075",
    "bed": 0,
    "dec": 1,
    "lon": 127.0683826,
    "lat": 37.6281413
  },
  {
    "name": "시카고치과의원",
    "address": "서울특별시 노원구 동일로 1372, 2층 (상계동, 동보빌딩)",
    "index": "치과",
    "phone": "934-2875",
    "bed": 0,
    "dec": 1,
    "lon": 127.0589421,
    "lat": 37.65109879
  },
  {
    "name": "밝은미래안과의원",
    "address": "서울특별시 노원구 동일로 1548, 4층,6층 (상계동, 세일빌딩)",
    "index": "안과",
    "phone": "02-939-3075",
    "bed": 0,
    "dec": 1,
    "lon": 127.0547583,
    "lat": 37.66667369
  },
  {
    "name": "이편한치과의원",
    "address": "서울특별시 노원구 화랑로 337, 3층 (월계동, 인현빌딩)",
    "index": "치과",
    "phone": "942-2876",
    "bed": 0,
    "dec": 1,
    "lon": 127.0622393,
    "lat": 37.61528425
  },
  {
    "name": "올리브산부인과의원",
    "address": "서울특별시 노원구 노해로 495, 3층 302호 (상계동, 삼용빌딩)",
    "index": "산부인과, 가정의학과",
    "phone": "925-8861",
    "bed": 0,
    "dec": 1,
    "lon": 127.0602426,
    "lat": 37.65511715
  },
  {
    "name": "럼플란트치과의원",
    "address": "서울특별시 노원구 중계로 218, 801호 (중계동)",
    "index": "구강악안면외과, 치과보철과, 치과교정과, 소아치과, 치주과, 치과보존과, 구강내과, 구강악안면방사선과, 구강병리과, 예방치과, 치과",
    "phone": "3391-2004",
    "bed": 0,
    "dec": 1,
    "lon": 127.0731157,
    "lat": 37.65087076
  },
  {
    "name": "연세마디튼튼의원",
    "address": "서울특별시 노원구 상계로 119, 2층 (상계동)",
    "index": "내과, 정형외과, 소아청소년과",
    "phone": "939-4900",
    "bed": 0,
    "dec": 1,
    "lon": 127.0649919,
    "lat": 37.65793089
  },
  {
    "name": "태릉씨티치과의원",
    "address": "서울특별시 노원구 동일로 987, 2층 (공릉동)",
    "index": "치과",
    "phone": "977-7928",
    "bed": 0,
    "dec": 1,
    "lon": 127.0721058,
    "lat": 37.61825784
  },
  {
    "name": "연세키즈소아청소년과의원",
    "address": "서울특별시 노원구 섬밭로 134 (공릉동)",
    "index": "내과, 소아청소년과, 안과, 이비인후과, 피부과",
    "phone": "973-3455",
    "bed": 0,
    "dec": 2,
    "lon": 127.0663631,
    "lat": 37.62840958
  },
  {
    "name": "호21C치과의원",
    "address": "서울특별시 노원구 동일로 1308 (중계동)",
    "index": "치과",
    "phone": "949-9300",
    "bed": 0,
    "dec": 1,
    "lon": 127.0632099,
    "lat": 37.64700126
  },
  {
    "name": "서울미소그린치과의원",
    "address": "서울특별시 노원구 동일로203가길 29, 242,243,244호 (중계동, 브라운스톤중계)",
    "index": "치과, 치과보철과, 치과교정과",
    "phone": "02-975-7502",
    "bed": 0,
    "dec": 3,
    "lon": 127.0613672,
    "lat": 37.63993623
  },
  {
    "name": "구명삼치과의원",
    "address": "서울특별시 노원구 동일로 1549, 양성빌딩 401호 (상계동)",
    "index": "치과",
    "phone": "938-4261",
    "bed": 0,
    "dec": 2,
    "lon": 127.0539907,
    "lat": 37.66671612
  },
  {
    "name": "세브란스치과의원",
    "address": "서울특별시 노원구 동일로 1529, 합동빌딩 305호 (상계동)",
    "index": "치과",
    "phone": "938-1410",
    "bed": 0,
    "dec": 1,
    "lon": 127.0544102,
    "lat": 37.66509813
  },
  {
    "name": "파티마피부과의원",
    "address": "서울특별시 노원구 한글비석로 384, 3층 3호 (중계동, 대호프라자)",
    "index": "피부과, 비뇨의학과",
    "phone": "02-938-3154",
    "bed": 0,
    "dec": 1,
    "lon": 127.0704139,
    "lat": 37.65984142
  },
  {
    "name": "월계현대치과의원",
    "address": "서울특별시 노원구 마들로 111, 310호 (월계동, 월계미륭아파트,월계삼호아파트)",
    "index": "치과",
    "phone": "974-9308",
    "bed": 0,
    "dec": 1,
    "lon": 127.0625257,
    "lat": 37.62459059
  },
  {
    "name": "한정형외과의원",
    "address": "서울특별시 노원구 동일로 1532, 거북빌딩 (상계동)",
    "index": "정형외과",
    "phone": "02-934-7631",
    "bed": 0,
    "dec": 1,
    "lon": 127.0551084,
    "lat": 37.66531168
  },
  {
    "name": "서울플러스안과의원",
    "address": "서울특별시 노원구 노해로 482, 6층 (상계동, 덕영빌딩)",
    "index": "안과",
    "phone": 29378787,
    "bed": 4,
    "dec": 4,
    "lon": 127.058842,
    "lat": 37.65422665
  },
  {
    "name": "박화영소아청소년과의원",
    "address": "서울특별시 노원구 동일로203가길 29, 2층 (중계동, 브라운스톤중계)",
    "index": "소아청소년과",
    "phone": "02-6225-8275",
    "bed": 0,
    "dec": 1,
    "lon": 127.0613672,
    "lat": 37.63993623
  },
  {
    "name": "이병희이비인후과의원",
    "address": "서울특별시 노원구 동일로 1382, 201호 (상계동, 올림피아상가)",
    "index": "이비인후과",
    "phone": "931-4144",
    "bed": 0,
    "dec": 2,
    "lon": 127.058701,
    "lat": 37.65198169
  },
  {
    "name": "푸른치과의원",
    "address": "서울특별시 노원구 화랑로 353, 2층 (월계동)",
    "index": "치과",
    "phone": "977-5300",
    "bed": 0,
    "dec": 1,
    "lon": 127.0641034,
    "lat": 37.61548952
  },
  {
    "name": "한마음가정의원",
    "address": "서울특별시 노원구 초안산로5길 12, 월계프라자 (월계동)",
    "index": "내과, 정형외과, 소아청소년과, 안과, 피부과, 비뇨의학과, 가정의학과",
    "phone": "02-907-4002",
    "bed": 0,
    "dec": 1,
    "lon": 127.0487641,
    "lat": 37.63255383
  },
  {
    "name": "뉴욕치과의원",
    "address": "서울특별시 노원구 동일로 1066 (공릉동, 노원새마을금고)",
    "index": "치과",
    "phone": "02-976-3100",
    "bed": 0,
    "dec": 1,
    "lon": 127.0705619,
    "lat": 37.62527699
  },
  {
    "name": "홍인한의원",
    "address": "서울특별시 노원구 동일로 1551, 2층 201호 (상계동)",
    "index": "한방내과, 한방부인과, 한방소아과, 한방안·이비인후·피부과, 한방신경정신과, 한방재활의학과, 사상체질과, 침구과",
    "phone": "02-932-5250",
    "bed": 0,
    "dec": 1,
    "lon": 127.053947,
    "lat": 37.66688377
  },
  {
    "name": "마들웰치과의원",
    "address": "서울특별시 노원구 동일로 1545, 현대골드씨티 3층 301, 303호 (상계동)",
    "index": "치과",
    "phone": "937-2211",
    "bed": 0,
    "dec": 1,
    "lon": 127.0540781,
    "lat": 37.66637995
  },
  {
    "name": "무릅부부한의원",
    "address": "서울특별시 노원구 동일로242가길 9, 5층 (상계동, 수연빌딩)",
    "index": "한방내과, 한방부인과, 한방소아과, 한방안·이비인후·피부과, 한방신경정신과, 한방재활의학과, 사상체질과, 침구과",
    "phone": "02-3391-7588",
    "bed": 0,
    "dec": 1,
    "lon": 127.0527839,
    "lat": 37.67635614
  },
  {
    "name": "노원연세하나로이비인후과의원",
    "address": "서울특별시 노원구 노해로 492, 10층 (상계동, 프린스빌딩)",
    "index": "이비인후과",
    "phone": "939-7585",
    "bed": 2,
    "dec": 1,
    "lon": 127.0597984,
    "lat": 37.65444083
  },
  {
    "name": "상계연세하나로이비인후과의원",
    "address": "서울특별시 노원구 노해로 492, 10층 (상계동, 프린스빌딩)",
    "index": "이비인후과",
    "phone": "939-5081",
    "bed": 1,
    "dec": 1,
    "lon": 127.0595367,
    "lat": 37.65438189
  },
  {
    "name": "노원구보건소",
    "address": "서울특별시 노원구 노해로 437 (상계동)",
    "index": "보건소",
    "phone": "2116-4373",
    "bed": 0,
    "dec": 36,
    "lon": 127.0537702,
    "lat": 37.65416421
  },
  {
    "name": "노원구보건지소",
    "address": "서울특별시 노원구 월계로 378 (월계동)",
    "index": "보건지소",
    "phone": "2116-4586",
    "bed": 0,
    "dec": 9,
    "lon": 127.0586725,
    "lat": 37.63144021
  },
  {
    "name": "서울동아의원",
    "address": "서울특별시 노원구 공릉로 99, 서울동아의원 (공릉동)",
    "index": "내과, 외과, 마취통증의학과, 가정의학과",
    "phone": "02-972-1189",
    "bed": 0,
    "dec": 1,
    "lon": 127.0752779,
    "lat": 37.61906993
  },
  {
    "name": "박현숙소아과의원",
    "address": "서울특별시 노원구 동일로 1024 (공릉동)",
    "index": "내과, 소아청소년과, 이비인후과, 피부과",
    "phone": "02-974-2025",
    "bed": 0,
    "dec": 1,
    "lon": 127.0717576,
    "lat": 37.62162692
  },
  {
    "name": "중앙외과의원",
    "address": "서울특별시 노원구 동일로192길 20 (공릉동)",
    "index": "내과, 외과, 정형외과, 소아청소년과, 피부과, 영상의학과",
    "phone": "977-1001",
    "bed": 0,
    "dec": 1,
    "lon": 127.0713752,
    "lat": 37.62587049
  },
  {
    "name": "방대홍영상의학과의원",
    "address": "서울특별시 노원구 동일로 1379, 401호 (상계동, 다모아빌딩)",
    "index": "영상의학과",
    "phone": "931-6000",
    "bed": 0,
    "dec": 1,
    "lon": 127.0579887,
    "lat": 37.65180055
  },
  {
    "name": "윤이비인후과의원",
    "address": "서울특별시 노원구 동일로 1379, 202호 (상계동, 다모아상가)",
    "index": "이비인후과",
    "phone": "931-8895",
    "bed": 0,
    "dec": 1,
    "lon": 127.0579887,
    "lat": 37.65180055
  },
  {
    "name": "최진수안과의원",
    "address": "서울특별시 노원구 동일로 1379, 302호 (상계동, 다모아상가)",
    "index": "안과",
    "phone": "933-2977",
    "bed": 0,
    "dec": 1,
    "lon": 127.0579887,
    "lat": 37.65180055
  },
  {
    "name": "권비뇨기과의원",
    "address": "서울특별시 노원구 상계로 65 (상계동)",
    "index": "비뇨의학과",
    "phone": "937-8350",
    "bed": 0,
    "dec": 1,
    "lon": 127.0593278,
    "lat": 37.65639959
  },
  {
    "name": "김안과의원",
    "address": "서울특별시 노원구 상계로 55, 302호 (상계동)",
    "index": "안과",
    "phone": "939-1808",
    "bed": 0,
    "dec": 1,
    "lon": 127.0581509,
    "lat": 37.65608874
  },
  {
    "name": "연세산부인과의원",
    "address": "서울특별시 노원구 상계로 65 (상계동)",
    "index": "산부인과",
    "phone": "939-2231",
    "bed": 0,
    "dec": 1,
    "lon": 127.0593278,
    "lat": 37.65639959
  },
  {
    "name": "위앤장(We&Jang)이원표내과의원",
    "address": "서울특별시 노원구 동일로 1379, 302호 (상계동, 다모아상가)",
    "index": "내과",
    "phone": "931-7911",
    "bed": 0,
    "dec": 2,
    "lon": 127.0579887,
    "lat": 37.65180055
  },
  {
    "name": "장일중내과의원",
    "address": "서울특별시 노원구 동일로 1530, 다모아빌딩 303,304호 (상계동)",
    "index": "내과",
    "phone": 29395800,
    "bed": 0,
    "dec": 1,
    "lon": 127.0551704,
    "lat": 37.66507342
  },
  {
    "name": "연세김&이소아과의원",
    "address": "서울특별시 노원구 노원로34길 112 (상계동, 코럴빌딩)",
    "index": "내과, 소아청소년과",
    "phone": "02-936-2949",
    "bed": 0,
    "dec": 2,
    "lon": 127.0634148,
    "lat": 37.66395788
  },
  {
    "name": "이종호비뇨기과의원",
    "address": "서울특별시 노원구 동일로 1689, 211호 (상계동, 하이베라스)",
    "index": "피부과, 비뇨의학과",
    "phone": "932-9366",
    "bed": 0,
    "dec": 1,
    "lon": 127.0519963,
    "lat": 37.67911939
  },
  {
    "name": "김재면내과의원",
    "address": "서울특별시 노원구 동일로 1533, 201호 (상계동, 백산빌딩)",
    "index": "내과",
    "phone": "932-9321",
    "bed": 0,
    "dec": 1,
    "lon": 127.0543296,
    "lat": 37.66534537
  },
  {
    "name": "김경수내과의원",
    "address": "서울특별시 노원구 한글비석로 264, 304호 (중계동, 중계그랜드프라자)",
    "index": "내과",
    "phone": "938-6166",
    "bed": 0,
    "dec": 1,
    "lon": 127.0742733,
    "lat": 37.65097495
  },
  {
    "name": "문비뇨기과의원",
    "address": "서울특별시 노원구 화랑로 325, 3층 (월계동, 우현빌딩)",
    "index": "피부과, 비뇨의학과",
    "phone": "909-4500",
    "bed": 0,
    "dec": 1,
    "lon": 127.0611612,
    "lat": 37.61490731
  },
  {
    "name": "박경숙산부인과의원",
    "address": "서울특별시 노원구 한글비석로 253, 201호 (중계동)",
    "index": "산부인과",
    "phone": "933-9230",
    "bed": 0,
    "dec": 1,
    "lon": 127.07346,
    "lat": 37.65042424
  },
  {
    "name": "박명제치과의원",
    "address": "서울특별시 노원구 동일로 1619 (상계동, 청송빌딩)",
    "index": "치과",
    "phone": "02-934-6004",
    "bed": 0,
    "dec": 1,
    "lon": 127.0522885,
    "lat": 37.67268156
  },
  {
    "name": "상계신경정신과의원",
    "address": "서울특별시 노원구 동일로 1379, 204호 (상계동, 다모아빌딩)",
    "index": "신경과, 정신건강의학과",
    "phone": "3391-7575",
    "bed": 0,
    "dec": 1,
    "lon": 127.0579887,
    "lat": 37.65180055
  },
  {
    "name": "공릉서울치과의원",
    "address": "서울특별시 노원구 동일로197길 21 (공릉동, 우성빌딩)",
    "index": "치과",
    "phone": "02-973-2864",
    "bed": 0,
    "dec": 1,
    "lon": 127.0673322,
    "lat": 37.62841464
  },
  {
    "name": "하동욱안과의원",
    "address": "서울특별시 노원구 화랑로 337, 4층 (월계동)",
    "index": "안과",
    "phone": "02-917-1175",
    "bed": 0,
    "dec": 3,
    "lon": 127.0622393,
    "lat": 37.61528425
  },
  {
    "name": "경희한의원",
    "address": "서울특별시 노원구 덕릉로 822, 성우빌딩 1층 (상계동)",
    "index": "한방내과, 한방부인과, 한방소아과, 한방안·이비인후·피부과, 한방신경정신과, 한방재활의학과, 사상체질과, 침구과",
    "phone": -2033,
    "bed": 0,
    "dec": 2,
    "lon": 127.0781943,
    "lat": 37.66978933
  },
  {
    "name": "이사랑치과의원",
    "address": "서울특별시 노원구 한글비석로 396, 108동 233호 (상계동, 벽산아파트 상가)",
    "index": "치과",
    "phone": "02-938-2647",
    "bed": 0,
    "dec": 1,
    "lon": 127.0699321,
    "lat": 37.6614726
  },
  {
    "name": "서울정치과의원",
    "address": "서울특별시 노원구 동일로 1036, 302호 (공릉동)",
    "index": "치과",
    "phone": "971-7228",
    "bed": 0,
    "dec": 1,
    "lon": 127.0714747,
    "lat": 37.62260006
  },
  {
    "name": "보람성모내과의원",
    "address": "서울특별시 노원구 노원로34길 88, 2층 (상계동)",
    "index": "내과",
    "phone": "952-3721",
    "bed": 0,
    "dec": 1,
    "lon": 127.0632431,
    "lat": 37.66286527
  },
  {
    "name": "은빛가정의원",
    "address": "서울특별시 노원구 동일로245가길 41, 205호 (상계동)",
    "index": "내과, 외과, 정형외과, 신경외과, 산부인과, 소아청소년과, 안과, 이비인후과, 피부과, 비뇨의학과",
    "phone": "936-6985",
    "bed": 0,
    "dec": 1,
    "lon": 127.0506147,
    "lat": 37.67996299
  },
  {
    "name": "홍익치과의원",
    "address": "서울특별시 노원구 석계로 104, 2층 201호 (월계동, 그린빌딩)",
    "index": "치과",
    "phone": "915-2879",
    "bed": 0,
    "dec": 1,
    "lon": 127.057765,
    "lat": 37.62315301
  },
  {
    "name": "안수민치과의원",
    "address": "서울특별시 노원구 섬밭로 209, 309호 (하계동, 벽산아파트상가)",
    "index": "치과",
    "phone": "974-2610",
    "bed": 0,
    "dec": 1,
    "lon": 127.0613537,
    "lat": 37.63544529
  },
  {
    "name": "상계성모의원",
    "address": "서울특별시 노원구 동일로 1643 (상계동, 상계성모정형외과의원)",
    "index": "내과, 정형외과, 마취통증의학과",
    "phone": "02-939-6633",
    "bed": 0,
    "dec": 3,
    "lon": 127.0520502,
    "lat": 37.67519501
  },
  {
    "name": "홍성환산부인과의원",
    "address": "서울특별시 노원구 화랑로 455 (공릉동)",
    "index": "내과, 산부인과, 소아청소년과",
    "phone": "02-972-1800",
    "bed": 3,
    "dec": 1,
    "lon": 127.0748584,
    "lat": 37.61868799
  },
  {
    "name": "씨에스치과의원",
    "address": "서울특별시 노원구 한글비석로 474, 207호 (상계동, 보람상가)",
    "index": "치과",
    "phone": "933-6530",
    "bed": 0,
    "dec": 1,
    "lon": 127.0625823,
    "lat": 37.66485696
  },
  {
    "name": "최소아과의원",
    "address": "서울특별시 노원구 마들로 111 (월계동)",
    "index": "소아청소년과",
    "phone": "02-976-2474",
    "bed": 0,
    "dec": 1,
    "lon": 127.0625257,
    "lat": 37.62459059
  },
  {
    "name": "장애숙산부인과의원",
    "address": "서울특별시 노원구 노해로83길 4 (상계동)",
    "index": "산부인과",
    "phone": "02-938-6486",
    "bed": 3,
    "dec": 1,
    "lon": 127.0616459,
    "lat": 37.65553554
  },
  {
    "name": "송영훈소아청소년과의원",
    "address": "서울특별시 노원구 동일로227길 86, 2층 (상계동, 공무원연금매점)",
    "index": "소아청소년과",
    "phone": "935-2266",
    "bed": 0,
    "dec": 1,
    "lon": 127.0508352,
    "lat": 37.66878326
  },
  {
    "name": "박창후치과의원",
    "address": "서울특별시 노원구 동일로 1530, 다모아빌딩 301호 (상계동)",
    "index": "치과",
    "phone": "938-3355",
    "bed": 0,
    "dec": 1,
    "lon": 127.0551704,
    "lat": 37.66507342
  },
  {
    "name": "김병준치과의원",
    "address": "서울특별시 노원구 한글비석로 253, 403호 (중계동, 세신프라자빌딩)",
    "index": "치과",
    "phone": "02-932-1954",
    "bed": 0,
    "dec": 1,
    "lon": 127.07346,
    "lat": 37.65042424
  },
  {
    "name": "노원신경정신과의원",
    "address": "서울특별시 노원구 동일로 1393, 305호 (상계동, 일신프라자)",
    "index": "정신건강의학과",
    "phone": "933-5151",
    "bed": 0,
    "dec": 1,
    "lon": 127.0576249,
    "lat": 37.65294149
  },
  {
    "name": "이호성비뇨기과의원",
    "address": "서울특별시 노원구 한글비석로 264, 308호 (중계동, 그랜드프라자)",
    "index": "비뇨의학과",
    "phone": "935-6806",
    "bed": 0,
    "dec": 1,
    "lon": 127.0742733,
    "lat": 37.65097495
  },
  {
    "name": "박희운치과의원",
    "address": "서울특별시 노원구 한글비석로 264, 306호 (중계동, 그랜드프라자)",
    "index": "구강악안면외과, 치과보철과, 치과교정과, 소아치과, 치주과, 치과보존과, 구강내과, 영상치의학과, 구강병리과, 예방치과",
    "phone": "02-931-0982",
    "bed": 0,
    "dec": 1,
    "lon": 127.0742733,
    "lat": 37.65097495
  },
  {
    "name": "중계제일의원",
    "address": "서울특별시 노원구 노원로19길 31, 106호 (중계동, 시영4단지상가)",
    "index": "내과",
    "phone": "976-9402",
    "bed": 0,
    "dec": 1,
    "lon": 127.0667666,
    "lat": 37.64345416
  },
  {
    "name": "이철민치과의원",
    "address": "서울특별시 노원구 동일로 1339, 603호 (상계동, 대한빌딩)",
    "index": "구강악안면외과, 치과보철과, 치과교정과, 소아치과, 치주과, 치과보존과, 구강내과, 영상치의학과, 예방치과",
    "phone": "02-938-3983",
    "bed": 0,
    "dec": 1,
    "lon": 127.0592671,
    "lat": 37.64815884
  },
  {
    "name": "강지천한의원",
    "address": "서울특별시 노원구 동일로227길 26 (상계동, 상계주공15단지아파트)",
    "index": "한방내과, 한방부인과, 한방소아과, 한방안·이비인후·피부과, 침구과",
    "phone": "02-930-7575",
    "bed": 0,
    "dec": 2,
    "lon": 127.0508352,
    "lat": 37.66878326
  },
  {
    "name": "이태형한의원",
    "address": "서울특별시 노원구 동일로203가길 29, 2층 240호외6호 (중계동, 브라운스톤중계)",
    "index": "한방내과, 한방부인과, 한방소아과, 한방안·이비인후·피부과, 한방신경정신과, 침구과",
    "phone": "02-977-3003",
    "bed": 0,
    "dec": 2,
    "lon": 127.0613672,
    "lat": 37.63993623
  },
  {
    "name": "김태진치과의원",
    "address": "서울특별시 노원구 한글비석로 396, 108동 215호 (상계동, 벽산아파트)",
    "index": "치과",
    "phone": "934-0447",
    "bed": 0,
    "dec": 1,
    "lon": 127.0699321,
    "lat": 37.6614726
  },
  {
    "name": "구재용치과의원",
    "address": "서울특별시 노원구 한글비석로 227, 이진빌딩 3층 (중계동)",
    "index": "구강악안면외과, 치과보철과, 소아치과, 치주과, 치과보존과, 구강내과, 영상치의학과, 구강병리과, 예방치과",
    "phone": "02-935-1204",
    "bed": 0,
    "dec": 1,
    "lon": 127.0733854,
    "lat": 37.64790071
  },
  {
    "name": "미즈아이의원",
    "address": "서울특별시 노원구 동일로 1553, 2층 (상계동)",
    "index": "내과, 산부인과, 소아청소년과",
    "phone": "931-5223",
    "bed": 3,
    "dec": 2,
    "lon": 127.0538936,
    "lat": 37.66706897
  },
  {
    "name": "동문치과의원",
    "address": "서울특별시 노원구 상계로 320 (상계동, 불암빌딩)",
    "index": "치과",
    "phone": "02-934-7528",
    "bed": 0,
    "dec": 1,
    "lon": 127.0779045,
    "lat": 37.67025211
  },
  {
    "name": "기파랑한의원",
    "address": "서울특별시 노원구 노원로 43, 대광빌딩 (공릉동)",
    "index": "한방내과, 한방부인과, 한방소아과, 한방안·이비인후·피부과, 한방신경정신과, 한방재활의학과, 사상체질과, 침구과",
    "phone": "02-976-0312",
    "bed": 0,
    "dec": 1,
    "lon": 127.0828948,
    "lat": 37.62541164
  },
  {
    "name": "제일성모의원",
    "address": "서울특별시 노원구 노원로 43, 2층 (공릉동, 대광빌딩)",
    "index": "내과, 정신건강의학과, 정형외과, 소아청소년과, 이비인후과, 피부과, 비뇨의학과",
    "phone": "977-0977",
    "bed": 0,
    "dec": 1,
    "lon": 127.0828948,
    "lat": 37.62541164
  },
  {
    "name": "해독한의원",
    "address": "서울특별시 노원구 공릉로 187, 2층 (공릉동)",
    "index": "한방내과, 한방부인과, 한방소아과, 한방안·이비인후·피부과, 한방재활의학과, 사상체질과, 침구과",
    "phone": "02-948-2709",
    "bed": 0,
    "dec": 1,
    "lon": 127.0760062,
    "lat": 37.62644434
  },
  {
    "name": "현대내과의원",
    "address": "서울특별시 노원구 월계로45길 28 (월계동, 월계아파트형공장)",
    "index": "내과",
    "phone": 29089339,
    "bed": 0,
    "dec": 1,
    "lon": 127.0483636,
    "lat": 37.62694078
  },
  {
    "name": "솔재활의학과의원",
    "address": "서울특별시 노원구 동일로203가길 29, 215-218호 (중계동, 브라운스톤상가)",
    "index": "내과, 정형외과, 피부과, 재활의학과, 가정의학과",
    "phone": 29782114,
    "bed": 0,
    "dec": 1,
    "lon": 127.0613672,
    "lat": 37.63993623
  },
  {
    "name": "이지성이비인후과의원",
    "address": "서울특별시 노원구 섬밭로 209, 203호 (하계동, 벽산상가)",
    "index": "이비인후과",
    "phone": "979-7732",
    "bed": 0,
    "dec": 1,
    "lon": 127.0613537,
    "lat": 37.63544529
  },
  {
    "name": "이경태치과의원",
    "address": "서울특별시 노원구 동일로 1401, 202호 (상계동, 상아빌딩)",
    "index": "치과",
    "phone": "938-5525",
    "bed": 0,
    "dec": 1,
    "lon": 127.0574477,
    "lat": 37.65356503
  },
  {
    "name": "선한마음치과의원",
    "address": "서울특별시 노원구 상계로1길 74, 동진상가 302,303호 (상계동)",
    "index": "치과, 통합치의학과",
    "phone": "02-938-5974",
    "bed": 0,
    "dec": 1,
    "lon": 127.0586367,
    "lat": 37.65940599
  },
  {
    "name": "노원빛사랑안과의원",
    "address": "서울특별시 노원구 노해로 492, 6층 (상계동, 프린스빌딩)",
    "index": "안과",
    "phone": "02-952-4200",
    "bed": 0,
    "dec": 4,
    "lon": 127.0597984,
    "lat": 37.65444083
  },
  {
    "name": "어비뇨기과의원",
    "address": "서울특별시 노원구 동일로 1401, 2층 (상계동, 상아빌딩)",
    "index": "산부인과, 피부과, 비뇨의학과",
    "phone": 29300131,
    "bed": 3,
    "dec": 4,
    "lon": 127.0574477,
    "lat": 37.65356503
  },
  {
    "name": "노원방사선과의원",
    "address": "서울특별시 노원구 동일로 1401, 4층 (상계동)",
    "index": "내과, 영상의학과, 진단검사의학과",
    "phone": "952-8733",
    "bed": 0,
    "dec": 3,
    "lon": 127.0574477,
    "lat": 37.65356503
  },
  {
    "name": "전성일정신건강의학과의원",
    "address": "서울특별시 노원구 노해로 457, 5층 (상계동, 은성빌딩)",
    "index": "정신건강의학과",
    "phone": "938-7997",
    "bed": 0,
    "dec": 1,
    "lon": 127.0558546,
    "lat": 37.65420432
  },
  {
    "name": "웰비뇨기과의원",
    "address": "서울특별시 노원구 한글비석로 242 (중계동)",
    "index": "피부과, 비뇨의학과",
    "phone": "930-0925",
    "bed": 0,
    "dec": 1,
    "lon": 127.0740733,
    "lat": 37.64930968
  },
  {
    "name": "부령한의원",
    "address": "서울특별시 노원구 섬밭로 229, 207호 (하계동, 벽산상가)",
    "index": "한방내과, 한방부인과, 한방소아과, 한방안·이비인후·피부과, 한방신경정신과, 한방재활의학과, 사상체질과, 침구과, 한방응급과",
    "phone": "02-978-7855",
    "bed": 0,
    "dec": 1,
    "lon": 127.0613537,
    "lat": 37.63544529
  },
  {
    "name": "김영주내과의원",
    "address": "서울특별시 노원구 섬밭로 258, 건영옴니백화점 5층 (중계동)",
    "index": "내과, 이비인후과, 피부과, 비뇨의학과",
    "phone": "972-1455",
    "bed": 0,
    "dec": 1,
    "lon": 127.0618644,
    "lat": 37.63882672
  },
  {
    "name": "김영순이비인후과의원",
    "address": "서울특별시 노원구 동일로 1551, 302호 (상계동, 쌍용빌딩)",
    "index": "이비인후과",
    "phone": "938-5519",
    "bed": 0,
    "dec": 1,
    "lon": 127.053947,
    "lat": 37.66688377
  },
  {
    "name": "신내과의원",
    "address": "서울특별시 노원구 섬밭로 209, 206호 (하계동, 벽산상가)",
    "index": "내과, 외과, 소아청소년과, 이비인후과, 피부과",
    "phone": "977-1777",
    "bed": 0,
    "dec": 1,
    "lon": 127.0613537,
    "lat": 37.63544529
  },
  {
    "name": "최병기치과의원",
    "address": "서울특별시 노원구 동일로180길 14, 3층 (공릉동, 공릉쇼핑)",
    "index": "치과",
    "phone": "978-1506",
    "bed": 0,
    "dec": 3,
    "lon": 127.0724195,
    "lat": 37.62194843
  },
  {
    "name": "보스톤치과의원",
    "address": "서울특별시 노원구 공릉로 146 (공릉동)",
    "index": "치과, 통합치의학과",
    "phone": "02-977-8877",
    "bed": 0,
    "dec": 1,
    "lon": 127.0766661,
    "lat": 37.62303238
  },
  {
    "name": "대성한의원",
    "address": "서울특별시 노원구 덕릉로 777 (상계동, 대성한의원)",
    "index": "한방내과, 한방부인과, 한방소아과, 한방안·이비인후·피부과, 한방신경정신과, 침구과",
    "phone": "02-936-1751",
    "bed": 0,
    "dec": 2,
    "lon": 127.0750845,
    "lat": 37.66672625
  },
  {
    "name": "김연성치과의원",
    "address": "서울특별시 노원구 동일로 1065, 2층 (공릉동)",
    "index": "치과",
    "phone": "979-2226",
    "bed": 0,
    "dec": 1,
    "lon": 127.0698796,
    "lat": 37.62520729
  },
  {
    "name": "구소아청소년과의원",
    "address": "서울특별시 노원구 한글비석로 474, 2층 202호 (상계동, 보람상가)",
    "index": "소아청소년과",
    "phone": "934-3724",
    "bed": 0,
    "dec": 1,
    "lon": 127.0625823,
    "lat": 37.66485696
  },
  {
    "name": "제일산부인과의원",
    "address": "서울특별시 노원구 섬밭로 229, 306호 (하계동, 벽산상가)",
    "index": "산부인과",
    "phone": "948-2870",
    "bed": 0,
    "dec": 1,
    "lon": 127.0613537,
    "lat": 37.63544529
  },
  {
    "name": "서태헌안과의원",
    "address": "서울특별시 노원구 섬밭로 229, 303호 (하계동, 벽산상가)",
    "index": "안과",
    "phone": "977-0852",
    "bed": 0,
    "dec": 1,
    "lon": 127.0613537,
    "lat": 37.63544529
  },
  {
    "name": "큐빅산부인과의원",
    "address": "서울특별시 노원구 동일로 1689, 207호 (상계동, 하이베라스)",
    "index": "내과, 성형외과, 산부인과, 피부과",
    "phone": "930-1450",
    "bed": 1,
    "dec": 1,
    "lon": 127.0519963,
    "lat": 37.67911939
  },
  {
    "name": "노원치과의원",
    "address": "서울특별시 노원구 상계로 65, 303호 (상계동, 현성빌딩)",
    "index": "치과",
    "phone": "02-933-2888",
    "bed": 0,
    "dec": 1,
    "lon": 127.0593278,
    "lat": 37.65639959
  },
  {
    "name": "예손치과의원",
    "address": "서울특별시 노원구 한글비석로 471, 3층 (상계동, 상계빌딩)",
    "index": "구강악안면외과, 치과보철과, 치과교정과, 소아치과, 치주과, 치과보존과, 구강내과, 영상치의학과, 구강병리과, 예방치과",
    "phone": "02-939-2833",
    "bed": 0,
    "dec": 1,
    "lon": 127.0626752,
    "lat": 37.66411845
  },
  {
    "name": "김천수한의원",
    "address": "서울특별시 노원구 공릉로 188, 2층 (공릉동)",
    "index": "한방내과, 한방부인과, 한방소아과, 한방신경정신과, 침구과",
    "phone": "02-977-7533",
    "bed": 0,
    "dec": 1,
    "lon": 127.0765517,
    "lat": 37.6266662
  },
  {
    "name": "청담해독한의원",
    "address": "서울특별시 노원구 동일로 1550, 3층 (상계동)",
    "index": "한방내과, 한방부인과, 한방소아과, 한방안·이비인후·피부과, 한방신경정신과, 한방재활의학과, 사상체질과, 침구과",
    "phone": "02-932-7533",
    "bed": 0,
    "dec": 1,
    "lon": 127.0546904,
    "lat": 37.66691776
  },
  {
    "name": "김지호산부인과의원",
    "address": "서울특별시 노원구 덕릉로83길 10, 2/3층 (중계동)",
    "index": "내과, 산부인과, 소아청소년과",
    "phone": "939-0980",
    "bed": 4,
    "dec": 2,
    "lon": 127.0720123,
    "lat": 37.65998181
  },
  {
    "name": "경귀준치과의원",
    "address": "서울특별시 노원구 섬밭로 232, 202호 (하계동, 현대아파트,우성아파트)",
    "index": "치과",
    "phone": "979-2678",
    "bed": 0,
    "dec": 1,
    "lon": 127.0634922,
    "lat": 37.63684983
  },
  {
    "name": "이준희이비인후과의원",
    "address": "서울특별시 노원구 동일로 1529, 204호 (상계동, 합동빌딩)",
    "index": "이비인후과",
    "phone": "02-935-5273",
    "bed": 0,
    "dec": 1,
    "lon": 127.0544102,
    "lat": 37.66509813
  },
  {
    "name": "일월한의원",
    "address": "서울특별시 노원구 마들로 31, 402호 (월계동, 그랑빌아파트)",
    "index": "한방내과, 한방부인과, 한방소아과, 한방안·이비인후·피부과, 한방신경정신과, 한방재활의학과, 사상체질과, 침구과, 한방응급과",
    "phone": "02-974-7831",
    "bed": 0,
    "dec": 1,
    "lon": 127.065678,
    "lat": 37.61780285
  },
  {
    "name": "중계본정형외과의원",
    "address": "서울특별시 노원구 한글비석로 270, 스카이타워 6층 601,602,603호 (중계동)",
    "index": "내과, 정형외과, 신경외과, 마취통증의학과, 소아청소년과, 재활의학과",
    "phone": "02-936-1098",
    "bed": 0,
    "dec": 1,
    "lon": 127.0745418,
    "lat": 37.65155821
  },
  {
    "name": "서울외과의원",
    "address": "서울특별시 노원구 동일로 1401, 상아빌딩 301호 (상계동)",
    "index": "내과, 외과, 성형외과, 피부과",
    "phone": "0507-1365-5541",
    "bed": 0,
    "dec": 1,
    "lon": 127.0574477,
    "lat": 37.65356503
  },
  {
    "name": "리멤버피부과의원",
    "address": "서울특별시 노원구 동일로 1380, 상계동 국민은행 5층 (상계동)",
    "index": "피부과",
    "phone": "02-936-8253",
    "bed": 0,
    "dec": 2,
    "lon": 127.0587671,
    "lat": 37.65174649
  },
  {
    "name": "삼성편한내과의원",
    "address": "서울특별시 노원구 동일로 1380, 상계동 국민은행 4층 (상계동)",
    "index": "내과",
    "phone": "02-934-7500",
    "bed": 0,
    "dec": 3,
    "lon": 127.0587671,
    "lat": 37.65174649
  },
  {
    "name": "연세탑정형외과의원",
    "address": "서울특별시 노원구 동일로 1380, 상계동 국민은행 3층 (상계동)",
    "index": "내과, 외과, 정형외과, 신경외과, 마취통증의학과, 피부과, 재활의학과, 가정의학과",
    "phone": "02-936-8275",
    "bed": 1,
    "dec": 1,
    "lon": 127.0587671,
    "lat": 37.65174649
  },
  {
    "name": "연세퍼스트원 치과의원",
    "address": "서울특별시 노원구 노해로 480, 조광빌딩 9층 901호 (상계동)",
    "index": "구강악안면외과, 치과보철과, 치과교정과, 소아치과, 치주과, 치과보존과, 구강내과, 영상치의학과, 예방치과, 통합치의학과",
    "phone": "02-951-2275",
    "bed": 0,
    "dec": 1,
    "lon": 127.0585495,
    "lat": 37.65415995
  },
  {
    "name": "퍼스트원 치과교정과치과의원",
    "address": "서울특별시 노원구 노해로 480, 조광빌딩 9층 902호 (상계동)",
    "index": "구강악안면외과, 치과보철과, 치과교정과, 소아치과, 치주과, 치과보존과, 구강내과, 영상치의학과, 예방치과, 통합치의학과",
    "phone": "02-951-2276",
    "bed": 0,
    "dec": 1,
    "lon": 127.0585495,
    "lat": 37.65415995
  },
  {
    "name": "연세차오름의원",
    "address": "서울특별시 노원구 노해로 449, 덕화빌딩 3층 (상계동)",
    "index": "내과, 외과, 정형외과, 신경외과, 성형외과, 소아청소년과, 피부과, 가정의학과, 응급의학과",
    "phone": "02-937-1119",
    "bed": 1,
    "dec": 2,
    "lon": 127.0551091,
    "lat": 37.65404602
  },
  {
    "name": "서울턱구강내과치과의원",
    "address": "서울특별시 노원구 노해로 492, 프린스빌딩 904,905호 (상계동)",
    "index": "구강악안면외과, 치과보철과, 치과교정과, 소아치과, 치주과, 치과보존과, 구강내과, 영상치의학과, 구강병리과, 예방치과",
    "phone": "02-6437-2875",
    "bed": 0,
    "dec": 1,
    "lon": 127.0597984,
    "lat": 37.65444083
  },
  {
    "name": "해아림 한의원",
    "address": "서울특별시 노원구 상계로 64, 화랑빌딩 4층 1호 (상계동)",
    "index": "한방내과, 한방부인과, 한방소아과, 한방안·이비인후·피부과, 한방신경정신과, 한방재활의학과, 사상체질과, 침구과",
    "phone": "02-932-9975",
    "bed": 0,
    "dec": 1,
    "lon": 127.0594362,
    "lat": 37.65568166
  },
  {
    "name": "중계퍼스트정형외과의원",
    "address": "서울특별시 노원구 동일로 1308, 정안프라자 3층 (중계동)",
    "index": "내과, 신경과, 외과, 정형외과, 신경외과, 마취통증의학과, 영상의학과, 재활의학과, 가정의학과",
    "phone": "02-978-7788",
    "bed": 0,
    "dec": 1,
    "lon": 127.0632099,
    "lat": 37.64700126
  },
  {
    "name": "청담사암한의원",
    "address": "서울특별시 노원구 공릉로 149 (공릉동)",
    "index": "한방내과, 한방부인과, 한방소아과, 한방안·이비인후·피부과, 한방신경정신과, 한방재활의학과, 사상체질과, 침구과",
    "phone": "02-971-8400",
    "bed": 0,
    "dec": 1,
    "lon": 127.076406,
    "lat": 37.62344261
  },
  {
    "name": "하늘체 한의원",
    "address": "서울특별시 노원구 동일로 1419, 디와이홀딩스(주)빌딩 (상계동)",
    "index": "한방내과, 한방부인과, 한방소아과, 한방안·이비인후·피부과, 한방신경정신과, 한방재활의학과, 사상체질과, 침구과",
    "phone": "02-743-7640",
    "bed": 0,
    "dec": 1,
    "lon": 127.056961,
    "lat": 37.65530667
  },
  {
    "name": "연세힐정신건강의학과의원",
    "address": "서울특별시 노원구 한글비석로 270, 스카이타워 2층층 202호 (중계동)",
    "index": "정신건강의학과",
    "phone": "02-935-8305",
    "bed": 0,
    "dec": 1,
    "lon": 127.0745418,
    "lat": 37.65155821
  },
  {
    "name": "스카이서울안과의원",
    "address": "서울특별시 노원구 한글비석로 270, 스카이타워 (중계동)",
    "index": "안과",
    "phone": "02-951-1001",
    "bed": 0,
    "dec": 1,
    "lon": 127.0745418,
    "lat": 37.65155821
  },
  {
    "name": "탑메디피부과의원",
    "address": "서울특별시 노원구 한글비석로 270, 스카이타워 4층 401,402호 (중계동)",
    "index": "내과, 피부과, 가정의학과",
    "phone": "932-0770",
    "bed": 0,
    "dec": 2,
    "lon": 127.0745418,
    "lat": 37.65155821
  },
  {
    "name": "인우치과의원",
    "address": "서울특별시 노원구 한글비석로22길 18, 2층 (중계동)",
    "index": "치과",
    "phone": "934-2877",
    "bed": 0,
    "dec": 2,
    "lon": 127.0705521,
    "lat": 37.66036062
  },
  {
    "name": "닥터로피부과의원",
    "address": "서울특별시 노원구 노해로 490, 501호,502호 (상계동, 길빌딩)",
    "index": "피부과",
    "phone": "937-0043",
    "bed": 0,
    "dec": 1,
    "lon": 127.0595367,
    "lat": 37.65438189
  },
  {
    "name": "푸름외과의원",
    "address": "서울특별시 노원구 상계로 84 (상계동)",
    "index": "외과",
    "phone": "931-0365",
    "bed": 4,
    "dec": 1,
    "lon": 127.0614169,
    "lat": 37.65632492
  },
  {
    "name": "좋은꿈참사랑 한의원",
    "address": "서울특별시 노원구 동일로 1530, 다모아빌딩 202호 (상계동)",
    "index": "한방내과, 한방부인과, 한방소아과, 한방안·이비인후·피부과, 한방신경정신과, 한방재활의학과, 사상체질과, 침구과, 한방응급과",
    "phone": "951-7510",
    "bed": 0,
    "dec": 1,
    "lon": 127.0551704,
    "lat": 37.66507342
  },
  {
    "name": "고움의원",
    "address": "서울특별시 노원구 노해로 501, 201호,203호 (상계동, 노원빌딩)",
    "index": "피부과",
    "phone": "931-7747",
    "bed": 0,
    "dec": 1,
    "lon": 127.0606676,
    "lat": 37.65522772
  },
  {
    "name": "연세우리안과의원",
    "address": "서울특별시 노원구 동일로203가길 29, 207호 (중계동, 브라운스톤중계)",
    "index": "안과",
    "phone": "02-974-7582",
    "bed": 0,
    "dec": 3,
    "lon": 127.0613672,
    "lat": 37.63993623
  },
  {
    "name": "이재철한의원",
    "address": "서울특별시 노원구 한글비석로 264, 중계그랜드프라자 309호 (중계동)",
    "index": "한방내과, 한방부인과, 한방소아과, 한방안·이비인후·피부과, 한방신경정신과, 한방재활의학과, 사상체질과, 침구과",
    "phone": "02-933-7535",
    "bed": 0,
    "dec": 1,
    "lon": 127.0742733,
    "lat": 37.65097495
  },
  {
    "name": "척척명의원",
    "address": "서울특별시 노원구 상계로 59, 602호 (상계동, 동익빌딩)",
    "index": "내과, 외과, 정형외과, 신경외과, 마취통증의학과, 소아청소년과, 이비인후과, 피부과, 재활의학과, 가정의학과",
    "phone": "02-6232-2485",
    "bed": 0,
    "dec": 1,
    "lon": 127.058601,
    "lat": 37.65618629
  },
  {
    "name": "임플라인치과의원",
    "address": "서울특별시 노원구 노원로 246, 5층 (하계동, 욱현하이브)",
    "index": "구강악안면외과, 치과보철과, 치과교정과, 소아치과, 치주과, 치과보존과, 구강내과, 예방치과",
    "phone": "02-978-7528",
    "bed": 0,
    "dec": 1,
    "lon": 127.0712271,
    "lat": 37.63968512
  },
  {
    "name": "피오나여성의원",
    "address": "서울특별시 노원구 상계로 77, 3층 (상계동, 다나프라자)",
    "index": "내과, 성형외과, 산부인과, 소아청소년과, 안과, 피부과, 가정의학과",
    "phone": "02-951-7111",
    "bed": 0,
    "dec": 1,
    "lon": 127.0606852,
    "lat": 37.65666153
  },
  {
    "name": "신항외과의원",
    "address": "서울특별시 노원구 동일로 1098, 4-7층 (공릉동)",
    "index": "내과, 외과, 가정의학과",
    "phone": "948-7100",
    "bed": 8,
    "dec": 5,
    "lon": 127.0692255,
    "lat": 37.62794188
  },
  {
    "name": "고은미즈의원",
    "address": "서울특별시 노원구 동일로 1553 (상계동)",
    "index": "내과, 외과, 성형외과, 산부인과, 소아청소년과, 안과, 이비인후과, 피부과",
    "phone": "3392-3338",
    "bed": 0,
    "dec": 1,
    "lon": 127.0538936,
    "lat": 37.66706897
  },
  {
    "name": "서울비뇨기과의원",
    "address": "서울특별시 노원구 노해로 492 (상계동, 프린스빌딩)",
    "index": "피부과, 비뇨의학과",
    "phone": 29514336,
    "bed": 0,
    "dec": 1,
    "lon": 127.0597984,
    "lat": 37.65444083
  },
  {
    "name": "비타민치과의원",
    "address": "서울특별시 노원구 한글비석로 263, 401호 (중계동)",
    "index": "치과",
    "phone": "02-938-7132",
    "bed": 0,
    "dec": 2,
    "lon": 127.0735731,
    "lat": 37.65121816
  },
  {
    "name": "선이고운연세치과의원",
    "address": "서울특별시 노원구 노해로 489, 7층 702호 (상계동, IBK기업은행)",
    "index": "구강악안면외과, 치과보철과, 치과교정과, 소아치과, 치주과, 치과보존과, 구강내과, 영상치의학과, 구강병리과, 예방치과",
    "phone": "02-933-2875",
    "bed": 0,
    "dec": 1,
    "lon": 127.0592735,
    "lat": 37.65492194
  },
  {
    "name": "에이스항외과의원",
    "address": "서울특별시 노원구 동일로 1396, 8층 (상계동, 중원빌딩)",
    "index": "내과, 외과, 이비인후과, 피부과, 비뇨의학과",
    "phone": "932-7588",
    "bed": 9,
    "dec": 1,
    "lon": 127.0584243,
    "lat": 37.6532439
  },
  {
    "name": "연세준치과의원",
    "address": "서울특별시 노원구 동일로 1077, 2층 (공릉동, 스테이션빌딩)",
    "index": "치과",
    "phone": "744-7528",
    "bed": 0,
    "dec": 1,
    "lon": 127.0695156,
    "lat": 37.62604118
  },
  {
    "name": "노원인플란트치과의원",
    "address": "서울특별시 노원구 상계로 59, 5층 (상계동)",
    "index": "치과",
    "phone": "935-7766",
    "bed": 0,
    "dec": 2,
    "lon": 127.058601,
    "lat": 37.65618629
  },
  {
    "name": "노원 다담한의원",
    "address": "서울특별시 노원구 동일로 1308, 정안프라자 3층 (중계동)",
    "index": "한방내과, 한방부인과, 한방소아과, 한방안·이비인후·피부과, 한방신경정신과, 한방재활의학과, 사상체질과, 침구과",
    "phone": "02-949-3900",
    "bed": 0,
    "dec": 1,
    "lon": 127.0632099,
    "lat": 37.64700126
  },
  {
    "name": "우리이비인후과의원",
    "address": "서울특별시 노원구 상계로 320, 4층 (상계동, 불암빌딩)",
    "index": "이비인후과",
    "phone": "938-7582",
    "bed": 0,
    "dec": 1,
    "lon": 127.0779045,
    "lat": 37.67025211
  },
  {
    "name": "여진주한의원",
    "address": "서울특별시 노원구 노해로 457, 은성빌딩 6층 601호 (상계동)",
    "index": "한방내과, 한방부인과, 한방소아과, 한방안·이비인후·피부과, 한방신경정신과, 한방재활의학과, 사상체질과, 침구과",
    "phone": "02-930-9008",
    "bed": 0,
    "dec": 1,
    "lon": 127.0558546,
    "lat": 37.65420432
  },
  {
    "name": "해율한의원",
    "address": "서울특별시 노원구 노해로75길 14-26 (상계동, 효림빌딩)",
    "index": "한방내과, 한방부인과, 한방소아과, 한방안·이비인후·피부과, 한방신경정신과, 한방재활의학과, 사상체질과, 침구과",
    "phone": "02-935-5750",
    "bed": 0,
    "dec": 1,
    "lon": 127.0560066,
    "lat": 37.65456281
  },
  {
    "name": "제민통합내과정형외과의원",
    "address": "서울특별시 노원구 상계로 63-7, 청우빌딩 (상계동)",
    "index": "내과, 외과, 정형외과, 신경외과, 이비인후과, 피부과, 재활의학과, 가정의학과",
    "phone": "02-936-6390",
    "bed": 0,
    "dec": 2,
    "lon": 127.0590209,
    "lat": 37.65651144
  },
  {
    "name": "CL성형외과의원",
    "address": "서울특별시 노원구 동일로 1392, 5층 (상계동, 노원한일빌딩)",
    "index": "내과, 외과, 정형외과, 신경외과, 성형외과, 마취통증의학과, 소아청소년과, 안과, 이비인후과, 피부과",
    "phone": "933-6522",
    "bed": 0,
    "dec": 1,
    "lon": 127.0584803,
    "lat": 37.65305829
  },
  {
    "name": "원더플란트치과의원",
    "address": "서울특별시 노원구 한글비석로 384, 대호프라자 201,202,207호 (중계동)",
    "index": "구강악안면외과, 치과보철과, 치과교정과, 소아치과, 치주과, 치과보존과, 구강내과, 영상치의학과, 구강병리과, 예방치과",
    "phone": "02-938-2275",
    "bed": 0,
    "dec": 3,
    "lon": 127.0704139,
    "lat": 37.65984142
  },
  {
    "name": "우주가정의학과의원",
    "address": "서울특별시 노원구 덕릉로 773 (상계동, 상계이씨빌딩)",
    "index": "내과, 정형외과, 소아청소년과, 이비인후과, 가정의학과",
    "phone": "02-933-0365",
    "bed": 0,
    "dec": 2,
    "lon": 127.0749031,
    "lat": 37.66636342
  },
  {
    "name": "바른임플치과의원",
    "address": "서울특별시 노원구 동일로 1413, 5층 (상계동, 남성빌딩)",
    "index": "구강악안면외과, 치과보철과, 치과교정과, 소아치과, 치주과, 치과보존과, 구강내과, 영상치의학과, 구강병리과, 예방치과, 통합치의학과",
    "phone": "02-939-7522",
    "bed": 0,
    "dec": 1,
    "lon": 127.0571268,
    "lat": 37.65476572
  },
  {
    "name": "본치한의원",
    "address": "서울특별시 노원구 석계로 102, 주원21빌딩 2층 (월계동)",
    "index": "한방내과, 한방부인과, 한방소아과, 한방안·이비인후·피부과, 한방신경정신과, 한방재활의학과, 사상체질과, 침구과",
    "phone": "02-974-0111",
    "bed": 0,
    "dec": 1,
    "lon": 127.0580487,
    "lat": 37.62329638
  },
  {
    "name": "자연휴한의원",
    "address": "서울특별시 노원구 동일로 1279, 2층 209호 (중계동, 중계그린아파트A,B상가)",
    "index": "한방내과, 한방부인과, 한방소아과, 한방안·이비인후·피부과, 한방신경정신과, 한방재활의학과, 사상체질과, 침구과",
    "phone": "02-976-1734",
    "bed": 0,
    "dec": 1,
    "lon": 127.0612184,
    "lat": 37.64202631
  },
  {
    "name": "노원백정형외과의원",
    "address": "서울특별시 노원구 동일로243길 33, 2.3.6층 (상계동)",
    "index": "정형외과, 신경외과, 마취통증의학과, 재활의학과",
    "phone": "02-930-0222",
    "bed": 1,
    "dec": 1,
    "lon": 127.0501768,
    "lat": 37.67845777
  },
  {
    "name": "연치과의원",
    "address": "서울특별시 노원구 노원로 330 (중계동, 롯데마트)",
    "index": "구강악안면외과, 치과보철과, 소아치과, 치주과, 치과보존과, 구강내과, 영상치의학과, 구강병리과, 예방치과",
    "phone": "02-937-0019",
    "bed": 0,
    "dec": 1,
    "lon": 127.0682,
    "lat": 37.64654838
  },
  {
    "name": "편한을지의원",
    "address": "서울특별시 노원구 공릉로 150 (공릉동)",
    "index": "내과, 마취통증의학과, 소아청소년과, 이비인후과, 피부과, 비뇨의학과, 가정의학과",
    "phone": "02-948-3997",
    "bed": 0,
    "dec": 1,
    "lon": 127.0767367,
    "lat": 37.62337364
  },
  {
    "name": "아침향기한의원",
    "address": "서울특별시 노원구 노해로 490, 301,302호 (상계동)",
    "index": "한방내과, 한방부인과, 한방소아과, 한방안·이비인후·피부과, 한방신경정신과, 한방재활의학과, 사상체질과, 침구과, 한방응급과",
    "phone": "02-938-1305",
    "bed": 0,
    "dec": 1,
    "lon": 127.0595367,
    "lat": 37.65438189
  },
  {
    "name": "에이원치과의원",
    "address": "서울특별시 노원구 중계로 120 (중계동, 득림빌딩 2층)",
    "index": "치과",
    "phone": "932-2822",
    "bed": 0,
    "dec": 1,
    "lon": 127.0789084,
    "lat": 37.64632364
  },
  {
    "name": "수비뇨기과의원",
    "address": "서울특별시 노원구 동일로 1677, 제성빌딩 7층 (상계동)",
    "index": "내과, 성형외과, 피부과, 비뇨의학과",
    "phone": "939-7582",
    "bed": 0,
    "dec": 1,
    "lon": 127.0520512,
    "lat": 37.67819184
  },
  {
    "name": "상계율치과의원",
    "address": "서울특별시 노원구 상계로27길 32, 2층 202호 (상계동, 대명빌딩)",
    "index": "치과보철과, 치과교정과, 소아치과, 치주과, 치과보존과, 예방치과",
    "phone": "02-6232-2275",
    "bed": 0,
    "dec": 2,
    "lon": 127.0669833,
    "lat": 37.65996852
  },
  {
    "name": "김앤조서울정형외과의원",
    "address": "서울특별시 노원구 노원로26길 181, 청자빌딩 2~5층 (상계동)",
    "index": "내과, 외과, 정형외과, 신경외과, 마취통증의학과, 재활의학과",
    "phone": "02-6933-7080",
    "bed": 20,
    "dec": 3,
    "lon": 127.0684121,
    "lat": 37.65807487
  },
  {
    "name": "시카고백중치과의원",
    "address": "서울특별시 노원구 동일로 1402, 3층 (상계동)",
    "index": "치과",
    "phone": "939-2875",
    "bed": 0,
    "dec": 1,
    "lon": 127.0582784,
    "lat": 37.6537521
  },
  {
    "name": "미즈아이프라자산부인과의원",
    "address": "서울특별시 노원구 동일로 1669, 수락프라자 (상계동)",
    "index": "산부인과, 소아청소년과, 가정의학과",
    "phone": "02-931-5224",
    "bed": 8,
    "dec": 4,
    "lon": 127.0519659,
    "lat": 37.67747556
  },
  {
    "name": "사계절에스한의원",
    "address": "서울특별시 노원구 상계로1길 54-4, 3층 (상계동, 센트럴타워)",
    "index": "한방내과, 한방부인과, 한방소아과, 한방안·이비인후·피부과, 한방신경정신과, 한방재활의학과, 사상체질과, 침구과",
    "phone": 29937582,
    "bed": 0,
    "dec": 1,
    "lon": 127.0587361,
    "lat": 37.65833537
  },
  {
    "name": "리안성형외과의원",
    "address": "서울특별시 노원구 동일로 1402, 4층 (상계동, 기업빌딩)",
    "index": "성형외과",
    "phone": "932-9753",
    "bed": 0,
    "dec": 1,
    "lon": 127.0582784,
    "lat": 37.6537521
  },
  {
    "name": "키움남성비뇨기과의원",
    "address": "서울특별시 노원구 노해로 480, 5층 (상계동)",
    "index": "비뇨의학과",
    "phone": "937-3377",
    "bed": 2,
    "dec": 1,
    "lon": 127.0585495,
    "lat": 37.65415995
  },
  {
    "name": "연세밝은안과의원",
    "address": "서울특별시 노원구 동일로 1669, 3층 (상계동, 수락프라자)",
    "index": "안과",
    "phone": "999-6988",
    "bed": 0,
    "dec": 2,
    "lon": 127.0519659,
    "lat": 37.67747556
  },
  {
    "name": "함께걸음마을한의원",
    "address": "서울특별시 노원구 상계로1길 14-11, 5층 (상계동, 하이웰빙상가)",
    "index": "한방내과, 한방부인과, 한방소아과, 한방안·이비인후·피부과, 한방신경정신과, 한방재활의학과, 사상체질과, 침구과",
    "phone": "02-937-5369",
    "bed": 0,
    "dec": 1,
    "lon": 127.0589831,
    "lat": 37.657003
  },
  {
    "name": "인연합치과의원",
    "address": "서울특별시 노원구 동일로 1669, 수락프라자 4층 (상계동)",
    "index": "치과보철과, 치과교정과, 소아치과, 치주과, 치과보존과, 구강내과, 영상치의학과, 구강병리과, 예방치과, 통합치의학과",
    "phone": "02-939-2879",
    "bed": 0,
    "dec": 3,
    "lon": 127.0519659,
    "lat": 37.67747556
  },
  {
    "name": "일맥한의원",
    "address": "서울특별시 노원구 노해로 492, 2층 (상계동, 프린스빌딩)",
    "index": "한방내과, 한방부인과, 한방소아과, 한방안·이비인후·피부과, 한방신경정신과, 한방재활의학과, 사상체질과, 침구과",
    "phone": "02-932-0056",
    "bed": 0,
    "dec": 1,
    "lon": 127.0597984,
    "lat": 37.65444083
  },
  {
    "name": "브라운스톤치과의원",
    "address": "서울특별시 노원구 동일로203가길 29, 274호 (중계동, 브라운스톤상가)",
    "index": "치과",
    "phone": "949-0880",
    "bed": 0,
    "dec": 1,
    "lon": 127.0613672,
    "lat": 37.63993623
  },
  {
    "name": "경희용한의원",
    "address": "서울특별시 노원구 덕릉로73길 18, 1층 (중계동)",
    "index": "한방내과, 한방부인과, 한방소아과, 한방안·이비인후·피부과, 한방신경정신과, 한방재활의학과, 사상체질과, 침구과, 한방응급과",
    "phone": "02-3391-7779",
    "bed": 0,
    "dec": 1,
    "lon": 127.0695668,
    "lat": 37.65218292
  },
  {
    "name": "W(더블유)치과의원",
    "address": "서울특별시 노원구 노해로 466 (상계동, NH농협증권)",
    "index": "치과",
    "phone": "02-951-2233",
    "bed": 0,
    "dec": 1,
    "lon": 127.0569972,
    "lat": 37.65381223
  },
  {
    "name": "태안과의원",
    "address": "서울특별시 노원구 동일로 1547, 2,4층 (상계동, 동남빌딩)",
    "index": "안과",
    "phone": "02-939-7733",
    "bed": 0,
    "dec": 6,
    "lon": 127.0540319,
    "lat": 37.66655731
  },
  {
    "name": "새연세정형외과의원",
    "address": "서울특별시 노원구 공릉로 187, 304호 (공릉동, 건설빌딩)",
    "index": "내과, 신경과, 외과, 정형외과, 신경외과, 피부과, 비뇨의학과, 재활의학과, 가정의학과",
    "phone": "02-979-7783",
    "bed": 26,
    "dec": 1,
    "lon": 127.0760062,
    "lat": 37.62644434
  },
  {
    "name": "미래비뇨기과의원",
    "address": "서울특별시 노원구 동일로203가길 29, 브라운스톤 296-297호 (중계동)",
    "index": "피부과, 비뇨의학과",
    "phone": "948-6090",
    "bed": 0,
    "dec": 1,
    "lon": 127.0613672,
    "lat": 37.63993623
  },
  {
    "name": "서울이튼치과의원",
    "address": "서울특별시 노원구 동일로 1551, 203호 (상계동, 삼전빌딩)",
    "index": "치과",
    "phone": "952-2121",
    "bed": 0,
    "dec": 1,
    "lon": 127.053947,
    "lat": 37.66688377
  },
  {
    "name": "예담치과의원",
    "address": "서울특별시 노원구 중계로 160, 화인상가아파트 202호 (중계동)",
    "index": "치과",
    "phone": "935-7528",
    "bed": 0,
    "dec": 1,
    "lon": 127.0784529,
    "lat": 37.6494326
  },
  {
    "name": "눈에빛안과의원",
    "address": "서울특별시 노원구 노해로 488, 2층 (상계동, 근호빌딩)",
    "index": "안과",
    "phone": "02-931-9933",
    "bed": 0,
    "dec": 1,
    "lon": 127.0592672,
    "lat": 37.65432112
  },
  {
    "name": "한솔치과의원",
    "address": "서울특별시 노원구 섬밭로 258, 5층 (중계동, 건영백화점)",
    "index": "치과",
    "phone": "949-2828",
    "bed": 0,
    "dec": 1,
    "lon": 127.0618644,
    "lat": 37.63882672
  },
  {
    "name": "가람한의원",
    "address": "서울특별시 노원구 섬밭로 156, 204호 (공릉동, 라이프2단지상가)",
    "index": "한방내과, 한방부인과, 한방소아과, 한방안·이비인후·피부과, 한방신경정신과, 한방재활의학과, 사상체질과, 침구과",
    "phone": "02-974-1214",
    "bed": 0,
    "dec": 1,
    "lon": 127.0665402,
    "lat": 37.63027399
  },
  {
    "name": "양우석신경과의원",
    "address": "서울특별시 노원구 동일로 1548, 2층 (상계동, 세일빌딩)",
    "index": "내과, 신경과",
    "phone": "936-9933",
    "bed": 0,
    "dec": 1,
    "lon": 127.0547583,
    "lat": 37.66667369
  },
  {
    "name": "인덕한의원",
    "address": "서울특별시 노원구 초안산로5길 12, 311호 (월계동, 월계프라자)",
    "index": "한방내과, 한방부인과, 한방소아과, 한방안·이비인후·피부과, 한방신경정신과, 한방재활의학과, 침구과",
    "phone": "02-999-2744",
    "bed": 0,
    "dec": 1,
    "lon": 127.0487641,
    "lat": 37.63255383
  },
  {
    "name": "윤세훈치과의원",
    "address": "서울특별시 노원구 한글비석로 459, 3층 (상계동, 한보빌딩)",
    "index": "치과",
    "phone": "951-2804",
    "bed": 0,
    "dec": 2,
    "lon": 127.0640416,
    "lat": 37.66400276
  },
  {
    "name": "비앤비이비인후과의원",
    "address": "서울특별시 노원구 한글비석로 254, 305호 (중계동, 대명프라자)",
    "index": "내과, 신경과, 외과, 성형외과, 소아청소년과, 안과, 이비인후과, 피부과, 비뇨의학과, 가정의학과",
    "phone": "02-931-7582",
    "bed": 1,
    "dec": 1,
    "lon": 127.0742002,
    "lat": 37.65040827
  },
  {
    "name": "연세아너스치과의원",
    "address": "서울특별시 노원구 한글비석로 466, 2층 (상계동)",
    "index": "치과",
    "phone": "951-2255",
    "bed": 0,
    "dec": 1,
    "lon": 127.0635261,
    "lat": 37.66456878
  },
  {
    "name": "노원플러스치과의원",
    "address": "서울특별시 노원구 한글비석로 384 (중계동)",
    "index": "치과",
    "phone": "3391-2818",
    "bed": 0,
    "dec": 2,
    "lon": 127.0704139,
    "lat": 37.65984142
  },
  {
    "name": "상계아산내과의원",
    "address": "서울특별시 노원구 한글비석로 459, 2층 (상계동, 한보빌딩)",
    "index": "내과, 소아청소년과, 이비인후과, 피부과, 비뇨의학과",
    "phone": "937-7557",
    "bed": 0,
    "dec": 1,
    "lon": 127.0640416,
    "lat": 37.66400276
  },
  {
    "name": "하늘마음한의원",
    "address": "서울특별시 노원구 동일로 1417, 4층 (상계동, 삼양빌딩)",
    "index": "한방내과, 한방부인과, 한방소아과, 한방안·이비인후·피부과, 한방신경정신과, 한방재활의학과, 사상체질과, 침구과, 한방응급과",
    "phone": 29368575,
    "bed": 0,
    "dec": 2,
    "lon": 127.0570693,
    "lat": 37.65509367
  },
  {
    "name": "서울맥마취통증의학과의원",
    "address": "서울특별시 노원구 노해로 480, 조광빌딩 6층 (상계동)",
    "index": "내과, 정신건강의학과, 외과, 정형외과, 신경외과, 성형외과, 마취통증의학과, 산부인과, 소아청소년과, 이비인후과, 피부과, 비뇨의학과, 영상의학과, 진단검사의학과, 재활의학과",
    "phone": 29341119,
    "bed": 2,
    "dec": 15,
    "lon": 127.0585495,
    "lat": 37.65415995
  },
  {
    "name": "경희효한의원",
    "address": "서울특별시 노원구 동일로180길 14, 2층 (공릉동, 공릉쇼핑센타)",
    "index": "한방내과, 한방부인과, 한방소아과, 한방안·이비인후·피부과, 한방신경정신과, 한방재활의학과, 사상체질과, 침구과",
    "phone": "02-979-7500",
    "bed": 0,
    "dec": 1,
    "lon": 127.0724195,
    "lat": 37.62194843
  },
  {
    "name": "경아치과의원",
    "address": "서울특별시 노원구 동일로 1538, 12단지 종합상가 210호 (상계동)",
    "index": "구강악안면외과, 치과보철과, 치과교정과, 소아치과, 치주과, 치과보존과, 영상치의학과, 예방치과, 통합치의학과",
    "phone": "937-1885",
    "bed": 0,
    "dec": 1,
    "lon": 127.0550115,
    "lat": 37.66599725
  },
  {
    "name": "디딤정신건강의학과의원",
    "address": "서울특별시 노원구 노해로 488, 5층 (상계동)",
    "index": "정신건강의학과",
    "phone": "909-8782",
    "bed": 0,
    "dec": 1,
    "lon": 127.0592672,
    "lat": 37.65432112
  },
  {
    "name": "미유여성외과의원",
    "address": "서울특별시 노원구 동일로 1417, 401호 (상계동, 삼양빌딩)",
    "index": "외과",
    "phone": "930-7878",
    "bed": 1,
    "dec": 3,
    "lon": 127.0570693,
    "lat": 37.65509367
  },
  {
    "name": "규림한의원",
    "address": "서울특별시 노원구 동일로 1396, 중원빌딩 9층 1호 (상계동)",
    "index": "한방내과, 한방부인과, 한방소아과, 한방안·이비인후·피부과, 한방신경정신과, 한방재활의학과, 사상체질과, 침구과, 한방응급과",
    "phone": "02-938-8975",
    "bed": 0,
    "dec": 1,
    "lon": 127.0584243,
    "lat": 37.6532439
  },
  {
    "name": "송찬우마취통증의학과의원",
    "address": "서울특별시 노원구 동일로 1099, 4층 (공릉동)",
    "index": "정형외과, 마취통증의학과, 재활의학과",
    "phone": "930-7191",
    "bed": 0,
    "dec": 1,
    "lon": 127.0686415,
    "lat": 37.62791387
  },
  {
    "name": "경희미한의원",
    "address": "서울특별시 노원구 한글비석로 383, 2층 7호 (중계동, 삼창프라자)",
    "index": "한방내과, 한방부인과, 한방소아과, 한방안·이비인후·피부과, 한방신경정신과, 한방재활의학과, 사상체질과, 침구과, 한방응급과",
    "phone": "02-3392-3375",
    "bed": 0,
    "dec": 1,
    "lon": 127.0697706,
    "lat": 37.65897035
  },
  {
    "name": "조아한의원",
    "address": "서울특별시 노원구 화랑로 337, 401호 (월계동, 인현빌딩)",
    "index": "한방내과, 한방부인과, 한방소아과, 한방안·이비인후·피부과, 한방신경정신과",
    "phone": "02-943-2060",
    "bed": 0,
    "dec": 1,
    "lon": 127.0622393,
    "lat": 37.61528425
  },
  {
    "name": "포도나무치과의원",
    "address": "서울특별시 노원구 동일로 1701, 301호 (상계동, 오피앙빌딩)",
    "index": "치과",
    "phone": "931-2851",
    "bed": 0,
    "dec": 1,
    "lon": 127.0519987,
    "lat": 37.68027003
  },
  {
    "name": "베스트CK의원",
    "address": "서울특별시 노원구 동일로 1401, 5층 (상계동, 상아빌딩)",
    "index": "성형외과, 마취통증의학과, 산부인과, 피부과",
    "phone": "02-931-3001",
    "bed": 0,
    "dec": 1,
    "lon": 127.0574477,
    "lat": 37.65356503
  },
  {
    "name": "유앤영피부과의원",
    "address": "서울특별시 노원구 노해로 480, 8층 (상계동, 조광빌딩)",
    "index": "피부과",
    "phone": "930-8288",
    "bed": 0,
    "dec": 4,
    "lon": 127.0585495,
    "lat": 37.65415995
  },
  {
    "name": "연세화랑의원",
    "address": "서울특별시 노원구 노원로1길 67, 304호 (공릉동, 대덕프라자)",
    "index": "내과, 신경과, 소아청소년과, 이비인후과, 피부과",
    "phone": "971-7588",
    "bed": 0,
    "dec": 2,
    "lon": 127.0807121,
    "lat": 37.62081085
  },
  {
    "name": "상계심내과의원",
    "address": "서울특별시 노원구 동일로 1677 (상계동, 제성빌딩)",
    "index": "내과, 소아청소년과",
    "phone": "02-931-2525",
    "bed": 0,
    "dec": 3,
    "lon": 127.0520512,
    "lat": 37.67819184
  },
  {
    "name": "풀잎한의원",
    "address": "서울특별시 노원구 노해로 485 (상계동)",
    "index": "한방내과, 한방부인과, 한방소아과, 한방안·이비인후·피부과, 한방신경정신과, 한방재활의학과, 사상체질과, 침구과",
    "phone": "02-933-3200",
    "bed": 0,
    "dec": 1,
    "lon": 127.0590451,
    "lat": 37.65487369
  },
  {
    "name": "아이누리한의원",
    "address": "서울특별시 노원구 동일로 1419, 디와이홀딩스(주)빌딩 5층 (상계동)",
    "index": "한방내과, 한방부인과, 한방소아과, 한방안·이비인후·피부과, 한방신경정신과, 한방재활의학과, 사상체질과, 침구과",
    "phone": "02-938-6800",
    "bed": 0,
    "dec": 1,
    "lon": 127.056961,
    "lat": 37.65530667
  },
  {
    "name": "건강미소내과의원",
    "address": "서울특별시 노원구 노해로 480, 5층 (상계동, 조광빌딩)",
    "index": "내과, 소아청소년과, 이비인후과, 영상의학과, 진단검사의학과",
    "phone": "931-5513",
    "bed": 0,
    "dec": 4,
    "lon": 127.0585495,
    "lat": 37.65415995
  },
  {
    "name": "오아로피부과의원",
    "address": "서울특별시 노원구 노해로 507, 4층 4001~4054,4056~4156,4159~4164호 (상계동, 와우쇼핑몰)",
    "index": "성형외과, 피부과",
    "phone": "02-930-1500",
    "bed": 0,
    "dec": 2,
    "lon": 127.0608712,
    "lat": 37.65533921
  },
  {
    "name": "다담에스한의원",
    "address": "서울특별시 노원구 동일로 1308, 정안프라자 3층 (중계동)",
    "index": "한방내과, 한방부인과, 한방소아과, 한방안·이비인후·피부과, 한방신경정신과, 한방재활의학과, 사상체질과, 침구과",
    "phone": "02-949-3980",
    "bed": 0,
    "dec": 1,
    "lon": 127.0632099,
    "lat": 37.64700126
  },
  {
    "name": "365MC의원",
    "address": "서울특별시 노원구 동일로 1392, 6층 (상계동, 한일빌딩)",
    "index": "가정의학과",
    "phone": "974-3653",
    "bed": 0,
    "dec": 3,
    "lon": 127.0584803,
    "lat": 37.65305829
  },
  {
    "name": "세이유외과의원",
    "address": "서울특별시 노원구 동일로 1413, 5층 (상계동, 남성빌딩)",
    "index": "외과",
    "phone": "02-951-6075",
    "bed": 0,
    "dec": 1,
    "lon": 127.0571268,
    "lat": 37.65476572
  },
  {
    "name": "노원척의원",
    "address": "서울특별시 노원구 노해로 456, 5층 (상계동, 동방빌딩)",
    "index": "신경외과, 마취통증의학과, 영상의학과",
    "phone": "02-2092-3030",
    "bed": 0,
    "dec": 2,
    "lon": 127.0557589,
    "lat": 37.65352548
  },
  {
    "name": "연세소울정신건강의학과의원",
    "address": "서울특별시 노원구 동일로 1392, 5층 (상계동, 한일빌딩)",
    "index": "정신건강의학과",
    "phone": "02-933-7501",
    "bed": 0,
    "dec": 1,
    "lon": 127.0584803,
    "lat": 37.65305829
  },
  {
    "name": "발머스한의원",
    "address": "서울특별시 노원구 동일로 1339 (상계동)",
    "index": "한방내과, 한방부인과, 한방소아과, 한방안·이비인후·피부과, 한방신경정신과, 한방재활의학과, 사상체질과, 침구과",
    "phone": "02-2038-8920",
    "bed": 0,
    "dec": 1,
    "lon": 127.0592671,
    "lat": 37.64815884
  },
  {
    "name": "김앤박내과의원",
    "address": "서울특별시 노원구 동일로 1392, 3층 (상계동, 한일빌딩)",
    "index": "내과",
    "phone": "930-7601",
    "bed": 0,
    "dec": 3,
    "lon": 127.0584803,
    "lat": 37.65305829
  },
  {
    "name": "월계의원",
    "address": "서울특별시 노원구 월계로45가길 94, 청백아파트4단지상가 106호 (월계동)",
    "index": "내과, 소아청소년과, 이비인후과, 피부과, 비뇨의학과",
    "phone": "976-1113",
    "bed": 0,
    "dec": 1,
    "lon": 127.048821,
    "lat": 37.6316907
  },
  {
    "name": "자윤한의원",
    "address": "서울특별시 노원구 동일로 1392, 2층 (상계동, 한일빌딩)",
    "index": "한방내과, 한방부인과, 한방소아과, 한방안·이비인후·피부과, 한방신경정신과, 한방재활의학과, 사상체질과, 침구과",
    "phone": "931-1071",
    "bed": 0,
    "dec": 1,
    "lon": 127.0584803,
    "lat": 37.65305829
  },
  {
    "name": "유정의원",
    "address": "서울특별시 노원구 한글비석로 416, 2,3층 (상계동, 상계의원)",
    "index": "내과, 정형외과, 소아청소년과, 이비인후과, 가정의학과",
    "phone": "02-937-0119",
    "bed": 11,
    "dec": 1,
    "lon": 127.067799,
    "lat": 37.66170225
  },
  {
    "name": "하늘치과의원",
    "address": "서울특별시 노원구 석계로 98-1, 301호 (월계동)",
    "index": "구강악안면외과, 치과보철과, 소아치과, 치주과, 치과보존과, 구강내과, 영상치의학과, 예방치과, 통합치의학과",
    "phone": "02-909-2275",
    "bed": 0,
    "dec": 1,
    "lon": 127.0582108,
    "lat": 37.62335554
  },
  {
    "name": "감동치과의원",
    "address": "서울특별시 노원구 한글비석로22길 28, 3층 (중계동)",
    "index": "구강악안면외과, 치과보철과, 치과교정과, 소아치과, 치주과, 치과보존과, 구강내과, 영상치의학과, 구강병리과, 예방치과",
    "phone": "02-936-2275",
    "bed": 0,
    "dec": 1,
    "lon": 127.0709149,
    "lat": 37.66070697
  },
  {
    "name": "로하셀한의원",
    "address": "서울특별시 노원구 상계로 63-7, 3층 (상계동, 청우빌딩)",
    "index": "한방내과, 한방부인과, 한방소아과, 한방안·이비인후·피부과, 한방신경정신과, 한방재활의학과, 침구과",
    "phone": "02-952-9930",
    "bed": 0,
    "dec": 1,
    "lon": 127.0590209,
    "lat": 37.65651144
  },
  {
    "name": "성모연합의원",
    "address": "서울특별시 노원구 상계로 193-25, 2층 (상계동, 벽산빌딩)",
    "index": "내과, 정형외과, 마취통증의학과",
    "phone": "02-932-9191",
    "bed": 0,
    "dec": 1,
    "lon": 127.0704699,
    "lat": 37.6627601
  },
  {
    "name": "박상근신경외과의원",
    "address": "서울특별시 노원구 동일로 1371, 302호 (상계동, 현대프라자빌딩)",
    "index": "내과, 신경과, 정신건강의학과, 외과, 정형외과, 신경외과, 마취통증의학과, 피부과, 비뇨의학과, 재활의학과, 가정의학과",
    "phone": "02-930-4942",
    "bed": 0,
    "dec": 1,
    "lon": 127.0582307,
    "lat": 37.65094551
  },
  {
    "name": "기쁨소아청소년과의원",
    "address": "서울특별시 노원구 동일로216길 70, 1층 (상계동, 상계주공4단지아파트)",
    "index": "내과, 소아청소년과, 이비인후과, 피부과",
    "phone": "02-931-7724",
    "bed": 0,
    "dec": 1,
    "lon": 127.062595,
    "lat": 37.65213682
  },
  {
    "name": "서울에이스정형외과의원",
    "address": "서울특별시 노원구 동일로 1374, 3층 (상계동, 미산빌딩)",
    "index": "정형외과, 신경외과, 마취통증의학과, 재활의학과",
    "phone": "02-931-7583",
    "bed": 0,
    "dec": 1,
    "lon": 127.0588918,
    "lat": 37.65130715
  },
  {
    "name": "디자인치과의원",
    "address": "서울특별시 노원구 노해로 491, 5층 (상계동, 중앙빌딩)",
    "index": "구강악안면외과, 치과보철과, 치과교정과, 소아치과, 치주과, 치과보존과, 구강내과",
    "phone": "02-931-2875",
    "bed": 0,
    "dec": 3,
    "lon": 127.0597405,
    "lat": 37.65502771
  },
  {
    "name": "경희잘한다한의원",
    "address": "서울특별시 노원구 누원로 22, 501호 (상계동, 크로바프라자)",
    "index": "한방내과, 한방부인과, 한방소아과, 침구과",
    "phone": "02-934-3375",
    "bed": 0,
    "dec": 2,
    "lon": 127.0502844,
    "lat": 37.68703486
  },
  {
    "name": "새서울연합의원",
    "address": "서울특별시 노원구 동일로 1678, 2,4,5,6,7층 (상계동)",
    "index": "내과, 신경과, 외과, 정형외과, 신경외과, 마취통증의학과, 소아청소년과, 이비인후과, 재활의학과",
    "phone": "02-930-5858",
    "bed": 29,
    "dec": 2,
    "lon": 127.0528077,
    "lat": 37.67809817
  },
  {
    "name": "수재활의학과의원",
    "address": "서울특별시 노원구 화랑로 325, 2,3층 (월계동, 우현빌딩)",
    "index": "정형외과, 신경외과, 마취통증의학과, 재활의학과",
    "phone": "02-6952-7997",
    "bed": 0,
    "dec": 3,
    "lon": 127.0611612,
    "lat": 37.61490731
  },
  {
    "name": "서울아인치과의원",
    "address": "서울특별시 노원구 노해로 456, 301,302호 (상계동, 동방빌딩)",
    "index": "구강악안면외과, 치과보철과, 치과교정과, 소아치과, 치주과, 치과보존과, 구강내과, 영상치의학과, 구강병리과, 예방치과",
    "phone": "02-931-9144",
    "bed": 0,
    "dec": 1,
    "lon": 127.0557589,
    "lat": 37.65352548
  },
  {
    "name": "우리들이비인후과의원",
    "address": "서울특별시 노원구 화랑로 337, 201호 (월계동)",
    "index": "내과, 소아청소년과, 이비인후과, 가정의학과",
    "phone": "02-6929-2575",
    "bed": 0,
    "dec": 1,
    "lon": 127.0622393,
    "lat": 37.61528425
  },
  {
    "name": "서울연합의원",
    "address": "서울특별시 노원구 한글비석로 410, 예공빌딩 2층 전체호 (상계동)",
    "index": "내과, 정형외과, 신경외과, 마취통증의학과, 이비인후과",
    "phone": "02-933-3810",
    "bed": 0,
    "dec": 1,
    "lon": 127.0683534,
    "lat": 37.66126928
  },
  {
    "name": "메이드유의원",
    "address": "서울특별시 노원구 노해로 456, 동방빌딩 3층 303호 (상계동)",
    "index": "피부과, 가정의학과",
    "phone": "02-931-8887",
    "bed": 0,
    "dec": 1,
    "lon": 127.0557589,
    "lat": 37.65352548
  },
  {
    "name": "서울성모정형외과의원",
    "address": "서울특별시 노원구 한글비석로 471, (주)맥스아웃 상계빌딩 5층 (상계동)",
    "index": "내과, 신경과, 정신건강의학과, 외과, 정형외과, 신경외과, 흉부외과, 마취통증의학과, 소아청소년과",
    "phone": "02-952-3456",
    "bed": 4,
    "dec": 2,
    "lon": 127.0626752,
    "lat": 37.66411845
  },
  {
    "name": "마들수내과의원",
    "address": "서울특별시 노원구 한글비석로 471, (주)맥스아웃 상계빌딩 4층 A,D,E호 (상계동)",
    "index": "내과, 신경과, 정신건강의학과, 소아청소년과, 이비인후과, 피부과, 비뇨의학과",
    "phone": "02-6314-7575",
    "bed": 0,
    "dec": 5,
    "lon": 127.0626752,
    "lat": 37.66411845
  },
  {
    "name": "우리한의원",
    "address": "서울특별시 노원구 공릉로 183, 대상빌딩 2층 (공릉동)",
    "index": "한방내과, 한방부인과, 한방소아과, 한방안·이비인후·피부과, 한방신경정신과, 한방재활의학과, 사상체질과, 침구과",
    "phone": "02-979-3777",
    "bed": 0,
    "dec": 1,
    "lon": 127.0764523,
    "lat": 37.62604868
  },
  {
    "name": "참내과의원",
    "address": "서울특별시 노원구 동일로203가길 29, 291호 (중계동, 브라운스톤 중계)",
    "index": "내과, 소아청소년과, 이비인후과, 피부과",
    "phone": "977-7588",
    "bed": 0,
    "dec": 2,
    "lon": 127.0613672,
    "lat": 37.63993623
  },
  {
    "name": "희한의원",
    "address": "서울특별시 노원구 중계로 120, 3층 (중계동, 득림빌딩)",
    "index": "한방내과, 한방부인과, 한방소아과, 한방안·이비인후·피부과, 한방신경정신과, 한방재활의학과, 사상체질과, 침구과, 한방응급과",
    "phone": "952-8788",
    "bed": 0,
    "dec": 1,
    "lon": 127.0789084,
    "lat": 37.64632364
  },
  {
    "name": "닥터큐의원",
    "address": "서울특별시 노원구 화랑로 425 (공릉동)",
    "index": "내과, 외과, 정형외과, 피부과, 재활의학과, 가정의학과",
    "phone": "974-6000",
    "bed": 0,
    "dec": 1,
    "lon": 127.0717472,
    "lat": 37.61756963
  },
  {
    "name": "편한내과의원",
    "address": "서울특별시 노원구 동일로 1036, 301호 (공릉동)",
    "index": "내과, 소아청소년과, 이비인후과, 피부과, 비뇨의학과",
    "phone": "949-2121",
    "bed": 0,
    "dec": 1,
    "lon": 127.0714747,
    "lat": 37.62260006
  },
  {
    "name": "정가정의학과의원",
    "address": "서울특별시 노원구 수락산로 232 (상계동)",
    "index": "내과, 소아청소년과, 이비인후과, 피부과, 가정의학과",
    "phone": "933-3475",
    "bed": 0,
    "dec": 1,
    "lon": 127.0499986,
    "lat": 37.67109369
  },
  {
    "name": "마이키즈치과의원",
    "address": "서울특별시 노원구 동일로 1550, 고려프라자빌딩 4층 407호 (상계동)",
    "index": "치과",
    "phone": "931-2290",
    "bed": 0,
    "dec": 1,
    "lon": 127.0546904,
    "lat": 37.66691776
  },
  {
    "name": "화한의원",
    "address": "서울특별시 노원구 한글비석로 362, 2층 (중계동, 중석빌딩)",
    "index": "한방내과, 한방부인과, 한방소아과, 한방안·이비인후·피부과, 한방신경정신과, 한방재활의학과, 사상체질과, 침구과",
    "phone": "02-935-1075",
    "bed": 0,
    "dec": 2,
    "lon": 127.0719692,
    "lat": 37.6581887
  },
  {
    "name": "W서울화이트치과의원",
    "address": "서울특별시 노원구 월계로45길 21, 205호 (월계동, 롯데캐슬루나상가)",
    "index": "치과",
    "phone": "906-2080",
    "bed": 0,
    "dec": 1,
    "lon": 127.0469022,
    "lat": 37.62654717
  },
  {
    "name": "소생한의원",
    "address": "서울특별시 노원구 한글비석로 464, 2층 (상계동)",
    "index": "한방내과, 한방부인과, 한방소아과, 한방안·이비인후·피부과, 한방신경정신과, 한방재활의학과, 사상체질과, 침구과",
    "phone": "939-9975",
    "bed": 0,
    "dec": 1,
    "lon": 127.0636866,
    "lat": 37.66453565
  },
  {
    "name": "튼튼마디한의원",
    "address": "서울특별시 노원구 노해로 456 (상계동, 동방빌딩)",
    "index": "한방내과, 한방부인과, 한방소아과, 한방안·이비인후·피부과, 한방신경정신과, 한방재활의학과, 사상체질과, 침구과",
    "phone": "02-939-7888",
    "bed": 0,
    "dec": 1,
    "lon": 127.0557589,
    "lat": 37.65352548
  },
  {
    "name": "태릉본비뇨기과의원",
    "address": "서울특별시 노원구 동일로 1003, 3층 (공릉동)",
    "index": "내과, 외과, 정형외과, 성형외과, 마취통증의학과, 산부인과, 피부과, 비뇨의학과",
    "phone": "960-8108",
    "bed": 0,
    "dec": 5,
    "lon": 127.0717584,
    "lat": 37.61971088
  },
  {
    "name": "위강한의원",
    "address": "서울특별시 노원구 동일로 1393, 303호 (상계동)",
    "index": "한방내과, 한방부인과, 한방소아과, 한방안·이비인후·피부과, 한방신경정신과, 한방재활의학과, 사상체질과, 침구과",
    "phone": "02-935-5575",
    "bed": 0,
    "dec": 1,
    "lon": 127.0576249,
    "lat": 37.65294149
  },
  {
    "name": "중계튼튼의원",
    "address": "서울특별시 노원구 동일로207길 18, 206호 (중계동, 중계그린아파트 B상가 )",
    "index": "내과, 소아청소년과, 이비인후과",
    "phone": "973-0173",
    "bed": 0,
    "dec": 1,
    "lon": 127.0603917,
    "lat": 37.64437127
  },
  {
    "name": "바른몸채담한의원",
    "address": "서울특별시 노원구 동일로 1541, 210호 (상계동)",
    "index": "한방내과, 한방부인과, 한방소아과, 한방안·이비인후·피부과, 한방신경정신과, 한방재활의학과, 사상체질과, 침구과",
    "phone": "02-952-1082",
    "bed": 0,
    "dec": 2,
    "lon": 127.0541367,
    "lat": 37.66585559
  },
  {
    "name": "리라치과의원",
    "address": "서울특별시 노원구 동일로 1636, 3층 (상계동)",
    "index": "치과",
    "phone": "02-930-2421",
    "bed": 0,
    "dec": 1,
    "lon": 127.0527246,
    "lat": 37.67440219
  },
  {
    "name": "성모바른정형외과의원",
    "address": "서울특별시 노원구 동일로204가길 34, 씨앤미복합빌딩 309,310,311,312호 (중계동)",
    "index": "정형외과, 신경외과, 흉부외과, 마취통증의학과, 재활의학과, 가정의학과",
    "phone": "02-2039-7975",
    "bed": 0,
    "dec": 1,
    "lon": 127.0653461,
    "lat": 37.64074925
  },
  {
    "name": "상계맑은내과의원",
    "address": "서울특별시 노원구 동일로 1366, 삼봉빌딩 5층 (상계동)",
    "index": "내과, 신경과, 소아청소년과, 이비인후과",
    "phone": "02-930-7616",
    "bed": 0,
    "dec": 8,
    "lon": 127.0591081,
    "lat": 37.6505568
  },
  {
    "name": "연세바른치과의원",
    "address": "서울특별시 노원구 동일로192길 74, 우은빌딩 3층 501호 (공릉동)",
    "index": "구강악안면외과, 치과보철과, 치과교정과, 소아치과, 치주과, 치과보존과, 구강내과, 영상치의학과, 구강병리과, 예방치과",
    "phone": "02-978-2275",
    "bed": 0,
    "dec": 1,
    "lon": 127.0741,
    "lat": 37.62711114
  },
  {
    "name": "연세신통마취통증의학과의원",
    "address": "서울특별시 노원구 동일로192길 74, 우은빌딩 2층 401호 (공릉동)",
    "index": "정형외과, 신경외과, 마취통증의학과, 재활의학과, 가정의학과",
    "phone": "02-978-7878",
    "bed": 0,
    "dec": 1,
    "lon": 127.0741,
    "lat": 37.62711114
  },
  {
    "name": "이튼치과의원",
    "address": "서울특별시 노원구 중계로 225, 215호 (중계동, 청구상가)",
    "index": "치과",
    "phone": "934-2872",
    "bed": 0,
    "dec": 1,
    "lon": 127.0714416,
    "lat": 37.64982755
  },
  {
    "name": "호수빈한의원",
    "address": "서울특별시 노원구 동일로 1665, 301호 (상계동, 대은빌딩)",
    "index": "한방내과, 한방부인과, 한방소아과, 한방안·이비인후·피부과, 한방신경정신과, 한방재활의학과, 사상체질과, 침구과, 한방응급과",
    "phone": "02-938-7993",
    "bed": 0,
    "dec": 1,
    "lon": 127.05192,
    "lat": 37.67723954
  },
  {
    "name": "코숨온누리한의원",
    "address": "서울특별시 노원구 월계로45길 21, 202호 (월계동, 롯데캐슬루나상가동)",
    "index": "한방내과, 한방부인과, 한방소아과, 한방안·이비인후·피부과, 한방신경정신과, 한방재활의학과, 사상체질과, 침구과",
    "phone": "02-919-1934",
    "bed": 0,
    "dec": 1,
    "lon": 127.0469022,
    "lat": 37.62654717
  },
  {
    "name": "고침한의원",
    "address": "서울특별시 노원구 동일로 1393, 2층 (상계동, 일신프라자)",
    "index": "한방내과, 한방부인과, 한방소아과, 한방안·이비인후·피부과, 한방신경정신과, 한방재활의학과, 사상체질과, 침구과",
    "phone": 29349900,
    "bed": 0,
    "dec": 2,
    "lon": 127.0576249,
    "lat": 37.65294149
  },
  {
    "name": "차앤박피부과의원",
    "address": "서울특별시 노원구 노해로 495 (상계동, 삼용빌딩)",
    "index": "피부과",
    "phone": "933-0571",
    "bed": 0,
    "dec": 3,
    "lon": 127.0602426,
    "lat": 37.65511715
  },
  {
    "name": "덴타피아치과의원",
    "address": "서울특별시 노원구 한글비석로 250, 223호 (중계동)",
    "index": "치과",
    "phone": "935-2226",
    "bed": 0,
    "dec": 1,
    "lon": 127.0741173,
    "lat": 37.64998909
  },
  {
    "name": "서울화이트치과의원",
    "address": "서울특별시 노원구 노해로 495, 4층 (상계동, 삼용빌딩)",
    "index": "치과",
    "phone": "936-7528",
    "bed": 0,
    "dec": 2,
    "lon": 127.0602426,
    "lat": 37.65511715
  },
  {
    "name": "굿모닝소아청소년과의원",
    "address": "서울특별시 노원구 동일로204가길 12, 홈플러스 지하2층 (중계동)",
    "index": "내과, 소아청소년과, 안과, 이비인후과, 피부과",
    "phone": "02-977-7530",
    "bed": 0,
    "dec": 2,
    "lon": 127.0657183,
    "lat": 37.6399186
  },
  {
    "name": "명한의원",
    "address": "서울특별시 노원구 동일로 1099, 2층 (공릉동)",
    "index": "한방내과, 한방부인과, 한방소아과, 한방안·이비인후·피부과, 한방신경정신과, 한방재활의학과, 사상체질과, 침구과",
    "phone": "02-948-3686",
    "bed": 0,
    "dec": 1,
    "lon": 127.0686415,
    "lat": 37.62791387
  },
  {
    "name": "화인마취통증의학과의원",
    "address": "서울특별시 노원구 노해로 482 (상계동)",
    "index": "마취통증의학과",
    "phone": "6269-2215",
    "bed": 0,
    "dec": 1,
    "lon": 127.058842,
    "lat": 37.65422665
  },
  {
    "name": "고운결한의원",
    "address": "서울특별시 노원구 동일로 1393, 일신프라자 403호 (상계동)",
    "index": "한방내과, 한방소아과, 한방안·이비인후·피부과, 사상체질과, 침구과",
    "phone": "02-931-7533",
    "bed": 0,
    "dec": 1,
    "lon": 127.0576249,
    "lat": 37.65294149
  },
  {
    "name": "금문치과의원",
    "address": "서울특별시 노원구 노원로34길 116, 3층 (상계동)",
    "index": "구강악안면외과, 치과보철과, 치과교정과, 소아치과, 치주과, 치과보존과, 구강내과, 구강악안면방사선과, 구강병리과, 예방치과, 치과, 치과, 구강악안면외과, 치과보철과, 치과교정과, 소아치과, 치주과, 치과보존과, 구강내과, 영상치의학과, 구강병리과, 예방치과",
    "phone": "739-1016",
    "bed": 0,
    "dec": 1,
    "lon": 127.0634428,
    "lat": 37.66411786
  },
  {
    "name": "포에버의원",
    "address": "서울특별시 노원구 동일로 1413, 2층 (상계동, 남성빌딩)",
    "index": "내과, 성형외과, 피부과",
    "phone": "6959-5846",
    "bed": 0,
    "dec": 4,
    "lon": 127.0571268,
    "lat": 37.65476572
  },
  {
    "name": "영광한의원",
    "address": "서울특별시 노원구 동일로 1390, 602동 2층 (상계동, 주공아파트)",
    "index": "한방내과, 한방부인과, 한방소아과, 한방안·이비인후·피부과, 한방신경정신과, 한방재활의학과, 사상체질과, 침구과, 한방응급과",
    "phone": "02-930-2347",
    "bed": 0,
    "dec": 1,
    "lon": 127.0586454,
    "lat": 37.65254408
  },
  {
    "name": "제일다온한의원",
    "address": "서울특별시 노원구 동일로 1029, 2층 (공릉동)",
    "index": "한방내과, 한방부인과, 한방소아과, 한방안·이비인후·피부과, 한방신경정신과, 한방재활의학과, 사상체질과, 침구과",
    "phone": "02-979-3375",
    "bed": 0,
    "dec": 1,
    "lon": 127.0709492,
    "lat": 37.62196367
  },
  {
    "name": "플러스치과의원",
    "address": "서울특별시 노원구 한글비석로 261, 3층 (중계동, 국민은행)",
    "index": "치과",
    "phone": "931-2804",
    "bed": 0,
    "dec": 1,
    "lon": 127.0734832,
    "lat": 37.65091939
  },
  {
    "name": "맑은머리신경과의원",
    "address": "서울특별시 노원구 동일로 1417, 삼양빌딩 3층 (상계동)",
    "index": "내과, 신경과, 마취통증의학과, 가정의학과",
    "phone": "939-2075",
    "bed": 0,
    "dec": 1,
    "lon": 127.0570693,
    "lat": 37.65509367
  },
  {
    "name": "(의)새생명의료재단 서울새생명의원",
    "address": "서울특별시 노원구 노해로 456, 동방빌딩 2층 1,2호 (상계동)",
    "index": "내과",
    "phone": "02-745-8661",
    "bed": 0,
    "dec": 28,
    "lon": 127.0560241,
    "lat": 37.65358232
  },
  {
    "name": "마이스킨피부과의원",
    "address": "서울특별시 노원구 한글비석로 254, 205호 (중계동, 대명플라자)",
    "index": "피부과",
    "phone": "938-0070",
    "bed": 0,
    "dec": 2,
    "lon": 127.0742002,
    "lat": 37.65040827
  },
  {
    "name": "백암한의원",
    "address": "서울특별시 노원구 동일로 1677, 9층 (상계동)",
    "index": "한방내과, 한방부인과, 한방소아과, 한방안·이비인후·피부과, 한방신경정신과, 한방재활의학과, 사상체질과, 침구과",
    "phone": "02-3444-8349",
    "bed": 0,
    "dec": 1,
    "lon": 127.0520512,
    "lat": 37.67819184
  },
  {
    "name": "서울아이정신과의원",
    "address": "서울특별시 노원구 노해로 492, 401호 (상계동, 프린스빌딩)",
    "index": "정신건강의학과",
    "phone": "02-932-7587",
    "bed": 0,
    "dec": 1,
    "lon": 127.0597984,
    "lat": 37.65444083
  },
  {
    "name": "서울에스엔재활의학과의원",
    "address": "서울특별시 노원구 한글비석로 250, 301호 (중계동)",
    "index": "정형외과, 신경외과, 재활의학과",
    "phone": "937-3875",
    "bed": 0,
    "dec": 3,
    "lon": 127.0741173,
    "lat": 37.64998909
  },
  {
    "name": "서울정가정의학과의원",
    "address": "서울특별시 노원구 덕릉로73길 18, 4층 (중계동)",
    "index": "내과, 신경과, 정신건강의학과, 외과, 정형외과, 마취통증의학과, 산부인과, 소아청소년과, 안과, 이비인후과, 피부과, 비뇨의학과, 영상의학과, 재활의학과, 가정의학과",
    "phone": "937-4215",
    "bed": 0,
    "dec": 1,
    "lon": 127.0695668,
    "lat": 37.65218292
  },
  {
    "name": "다솜이비인후과의원",
    "address": "서울특별시 노원구 동일로 1677, 6층 (상계동)",
    "index": "내과, 정형외과, 성형외과, 소아청소년과, 이비인후과, 피부과, 가정의학과",
    "phone": "02-937-5111",
    "bed": 1,
    "dec": 1,
    "lon": 127.0520512,
    "lat": 37.67819184
  },
  {
    "name": "연세스타일치과의원",
    "address": "서울특별시 노원구 화랑로 335, 2층 (월계동)",
    "index": "치과",
    "phone": "02-909-2824",
    "bed": 0,
    "dec": 2,
    "lon": 127.0620884,
    "lat": 37.61509863
  },
  {
    "name": "서울열린치과의원",
    "address": "서울특별시 노원구 동일로 1384, 6단지상가동 210,211호 (상계동, 상계주공6단지아파트)",
    "index": "치과, 치과보철과",
    "phone": "02-951-2828",
    "bed": 0,
    "dec": 2,
    "lon": 127.0586454,
    "lat": 37.65254408
  },
  {
    "name": "예랑마취통증의학과의원",
    "address": "서울특별시 노원구 한글비석로 264, 307호 (중계동, 그랜드프라자)",
    "index": "마취통증의학과",
    "phone": "939-0369",
    "bed": 0,
    "dec": 1,
    "lon": 127.0742733,
    "lat": 37.65097495
  },
  {
    "name": "드림이비인후과의원",
    "address": "서울특별시 노원구 월계로45길 21, 203호 (월계동, 롯데캐슬상가)",
    "index": "이비인후과",
    "phone": "906-3313",
    "bed": 0,
    "dec": 1,
    "lon": 127.0469022,
    "lat": 37.62654717
  },
  {
    "name": "서울준치과의원",
    "address": "서울특별시 노원구 공릉로46길 13, 1,2층 (공릉동)",
    "index": "치과, 구강악안면외과, 치과보철과, 치과교정과, 소아치과, 치주과, 치과보존과, 구강내과, 영상치의학과, 구강병리과, 예방치과",
    "phone": 29777582,
    "bed": 0,
    "dec": 2,
    "lon": 127.0766718,
    "lat": 37.62739613
  },
  {
    "name": "애플소아청소년과의원",
    "address": "서울특별시 노원구 동일로 1530, 3층 302호 (상계동, 다모아빌딩)",
    "index": "소아청소년과, 이비인후과",
    "phone": "02-932-7579",
    "bed": 0,
    "dec": 1,
    "lon": 127.0551704,
    "lat": 37.66507342
  },
  {
    "name": "서울진피부과의원",
    "address": "서울특별시 노원구 동일로 1402 (상계동, 하나금융프라자)",
    "index": "피부과",
    "phone": "931-7075",
    "bed": 0,
    "dec": 1,
    "lon": 127.0582784,
    "lat": 37.6537521
  },
  {
    "name": "서울수락치과의원",
    "address": "서울특별시 노원구 동일로 1598, 2층 2호 (상계동, 부흥빌딩)",
    "index": "구강악안면외과, 치과보철과, 치과교정과, 소아치과, 치주과, 치과보존과, 구강내과, 구강악안면방사선과, 구강병리과, 예방치과, 치과, 구강악안면외과, 치과보철과, 치과교정과, 소아치과, 치주과, 치과보존과, 구강내과, 영상치의학과, 구강병리과, 예방치과",
    "phone": "02-931-2777",
    "bed": 0,
    "dec": 2,
    "lon": 127.0535445,
    "lat": 37.67106109
  },
  {
    "name": "서울이편한치과의원",
    "address": "서울특별시 노원구 한글비석로 365 (중계동)",
    "index": "구강악안면외과, 치과보철과, 치과교정과, 소아치과, 치주과, 치과보존과, 구강내과, 구강악안면방사선과, 구강병리과, 예방치과, 치과, 치과, 구강악안면외과, 치과보철과, 치과교정과, 소아치과, 치주과, 치과보존과, 구강내과, 영상치의학과, 구강병리과, 예방치과",
    "phone": "937-7501",
    "bed": 0,
    "dec": 1,
    "lon": 127.0713935,
    "lat": 37.65820876
  },
  {
    "name": "김태영정신건강의학과의원",
    "address": "서울특별시 노원구 동일로 1382, 303호 (상계동)",
    "index": "정신건강의학과",
    "phone": "937-0118",
    "bed": 0,
    "dec": 1,
    "lon": 127.058701,
    "lat": 37.65198169
  },
  {
    "name": "서울하이안치과의원",
    "address": "서울특별시 노원구 노해로 490, 4층 (상계동, 길빌딩)",
    "index": "치과",
    "phone": "02-939-2800",
    "bed": 0,
    "dec": 3,
    "lon": 127.0595367,
    "lat": 37.65438189
  },
  {
    "name": "인애한의원",
    "address": "서울특별시 노원구 노해로 492, 5층 504,505호 (상계동, 프린스빌딩)",
    "index": "한방내과, 한방부인과, 한방소아과, 한방안·이비인후·피부과, 한방신경정신과, 한방재활의학과, 사상체질과, 침구과, 한방응급과",
    "phone": "938-1075",
    "bed": 0,
    "dec": 2,
    "lon": 127.0597984,
    "lat": 37.65444083
  },
  {
    "name": "노충희비뇨기과의원",
    "address": "서울특별시 노원구 동일로 1341, 3층 1,2호 (상계동, 장우빌딩)",
    "index": "내과, 피부과, 비뇨의학과",
    "phone": "02-933-6133",
    "bed": 0,
    "dec": 2,
    "lon": 127.0591817,
    "lat": 37.64832574
  },
  {
    "name": "연세거뜬정형외과의원",
    "address": "서울특별시 노원구 동일로 1077, 스테이션빌 빌딩 4층 (공릉동)",
    "index": "정형외과, 신경외과, 마취통증의학과, 재활의학과",
    "phone": "975-1400",
    "bed": 0,
    "dec": 1,
    "lon": 127.0695156,
    "lat": 37.62604118
  },
  {
    "name": "서울더바른치과교정과치과의원",
    "address": "서울특별시 노원구 화랑로 325, 2층 (월계동, 우현빌딩)",
    "index": "구강악안면외과, 치과보철과, 치과교정과, 소아치과, 치주과, 치과보존과, 구강내과, 영상치의학과, 구강병리과, 예방치과",
    "phone": "02-919-2828",
    "bed": 0,
    "dec": 2,
    "lon": 127.0611612,
    "lat": 37.61490731
  },
  {
    "name": "서울조은치과의원",
    "address": "서울특별시 노원구 노원로22길 71 (중계동, 건영3차아파트)",
    "index": "치과보철과, 소아치과, 치주과, 치과보존과, 예방치과",
    "phone": "02-952-5564",
    "bed": 0,
    "dec": 1,
    "lon": 127.0714051,
    "lat": 37.64858823
  },
  {
    "name": "정정권치과의원",
    "address": "서울특별시 노원구 중계로 201 (중계동)",
    "index": "구강악안면외과, 치과보철과, 치과교정과, 소아치과, 치주과, 치과보존과, 구강내과, 구강악안면방사선과, 구강병리과, 예방치과, 치과, 치과, 구강악안면외과, 치과보철과, 치과교정과, 소아치과, 치주과, 치과보존과, 구강내과, 영상치의학과, 구강병리과, 예방치과",
    "phone": "938-5538",
    "bed": 0,
    "dec": 1,
    "lon": 127.0748803,
    "lat": 37.65044905
  },
  {
    "name": "선두외과의원",
    "address": "서울특별시 노원구 노해로 456, 4층 401호 (상계동, 동방빌딩)",
    "index": "내과, 외과",
    "phone": "935-7535",
    "bed": 20,
    "dec": 3,
    "lon": 127.0560241,
    "lat": 37.65358232
  },
  {
    "name": "경희백세한의원",
    "address": "서울특별시 노원구 동일로 1370, 201호 (상계동)",
    "index": "한방내과, 한방부인과, 한방소아과, 한방안·이비인후·피부과, 한방신경정신과, 한방재활의학과, 사상체질과, 침구과",
    "phone": "02-930-0122",
    "bed": 0,
    "dec": 1,
    "lon": 127.0589906,
    "lat": 37.65092277
  },
  {
    "name": "웃는아이치과의원",
    "address": "서울특별시 노원구 섬밭로 263, 4층 4호, 5호 (중계동, 롯데상가)",
    "index": "치과",
    "phone": "948-7582",
    "bed": 0,
    "dec": 2,
    "lon": 127.0595979,
    "lat": 37.63878555
  },
  {
    "name": "함께걸음마을치과의원",
    "address": "서울특별시 노원구 상계로1길 14-11 (상계동, 하이웰빙상가)",
    "index": "구강악안면외과, 치과보철과, 치과교정과, 소아치과, 치주과, 치과보존과, 구강내과, 영상치의학과, 구강병리과, 예방치과",
    "phone": "02-939-8070",
    "bed": 0,
    "dec": 1,
    "lon": 127.0589831,
    "lat": 37.657003
  },
  {
    "name": "생기한의원",
    "address": "서울특별시 노원구 노해로81길 5-6, 노원스퀘어 4층 (상계동)",
    "index": "한방내과, 한방부인과, 한방소아과, 한방안·이비인후·피부과, 한방신경정신과, 한방재활의학과, 사상체질과, 침구과, 한방응급과",
    "phone": "02-931-4071",
    "bed": 0,
    "dec": 3,
    "lon": 127.0594965,
    "lat": 37.65522905
  },
  {
    "name": "동아의원",
    "address": "서울특별시 노원구 동일로197길 21, 3층 (공릉동, 우성빌딩)",
    "index": "내과, 이비인후과, 피부과, 비뇨의학과",
    "phone": "962-9240",
    "bed": 0,
    "dec": 1,
    "lon": 127.0673322,
    "lat": 37.62841464
  },
  {
    "name": "이레한의원",
    "address": "서울특별시 노원구 덕릉로 669 (중계동)",
    "index": "한방내과, 한방부인과, 한방소아과, 한방안·이비인후·피부과, 한방신경정신과, 한방재활의학과, 사상체질과, 침구과",
    "phone": "02-935-9355",
    "bed": 0,
    "dec": 1,
    "lon": 127.0716918,
    "lat": 37.65737909
  },
  {
    "name": "더바른한의원",
    "address": "서울특별시 노원구 한글비석로 253, 세신프라자빌딩 601호 (중계동)",
    "index": "한방내과, 한방부인과, 한방소아과, 한방안·이비인후·피부과, 한방신경정신과, 한방재활의학과, 사상체질과, 침구과",
    "phone": "02-937-8888",
    "bed": 0,
    "dec": 1,
    "lon": 127.07346,
    "lat": 37.65042424
  },
  {
    "name": "연세봄치과의원",
    "address": "서울특별시 노원구 섬밭로 139, 204,205호 (공릉동)",
    "index": "치과",
    "phone": "971-2332",
    "bed": 0,
    "dec": 1,
    "lon": 127.065255,
    "lat": 37.62916296
  },
  {
    "name": "키즈니치과의원",
    "address": "서울특별시 노원구 동일로 1419, 502호 (상계동)",
    "index": "구강악안면외과, 치과보철과, 치과교정과, 소아치과, 치주과, 치과보존과, 구강내과, 영상치의학과, 구강병리과, 예방치과",
    "phone": "02-952-2232",
    "bed": 0,
    "dec": 1,
    "lon": 127.056961,
    "lat": 37.65530667
  },
  {
    "name": "경희비웰한의원",
    "address": "서울특별시 노원구 상계로1길 14-11 (상계동)",
    "index": "한방내과, 한방부인과, 한방소아과, 한방안·이비인후·피부과, 한방신경정신과, 한방재활의학과, 사상체질과, 침구과, 한방응급과",
    "phone": -11966,
    "bed": 0,
    "dec": 1,
    "lon": 127.0589831,
    "lat": 37.657003
  },
  {
    "name": "재이한의원",
    "address": "서울특별시 노원구 동일로 1345, 302호 (상계동)",
    "index": "한방내과, 한방부인과, 한방소아과, 한방안·이비인후·피부과, 한방신경정신과, 한방재활의학과, 사상체질과, 침구과, 한방응급과",
    "phone": "937-8875",
    "bed": 0,
    "dec": 1,
    "lon": 127.0589892,
    "lat": 37.64868963
  },
  {
    "name": "서울제니스치과의원",
    "address": "서울특별시 노원구 노해로 501, 6층 601호 (상계동, 노원빌딩)",
    "index": "구강악안면외과, 치과보철과, 치과교정과, 소아치과, 치주과, 치과보존과, 구강내과, 영상치의학과, 구강병리과, 예방치과, 통합치의학과",
    "phone": "6959-2333",
    "bed": 0,
    "dec": 1,
    "lon": 127.0606676,
    "lat": 37.65522772
  },
  {
    "name": "선이비인후과의원",
    "address": "서울특별시 노원구 동일로 1380, 상계동 국민은행 2층 (상계동)",
    "index": "소아청소년과, 이비인후과",
    "phone": "931-3090",
    "bed": 0,
    "dec": 1,
    "lon": 127.0587671,
    "lat": 37.65174649
  },
  {
    "name": "비타민한의원",
    "address": "서울특별시 노원구 상계로1길 14-11, 하이웰빙상가 4층 (상계동)",
    "index": "한방내과, 한방부인과, 한방소아과, 한방안·이비인후·피부과, 한방신경정신과, 한방재활의학과, 사상체질과, 침구과",
    "phone": "02-932-8875",
    "bed": 0,
    "dec": 1,
    "lon": 127.0589831,
    "lat": 37.657003
  },
  {
    "name": "존스킨한의원",
    "address": "서울특별시 노원구 노해로 501, 401호 (상계동, 노원빌딩)",
    "index": "한방내과, 한방부인과, 한방소아과, 한방안·이비인후·피부과, 한방신경정신과, 한방재활의학과, 사상체질과, 침구과",
    "phone": "02-936-1075",
    "bed": 0,
    "dec": 1,
    "lon": 127.0606676,
    "lat": 37.65522772
  },
  {
    "name": "굳쎈정형외과의원",
    "address": "서울특별시 노원구 동일로 1673, 상계빌딩 (상계동)",
    "index": "내과, 외과, 정형외과, 신경외과, 마취통증의학과, 이비인후과, 피부과, 재활의학과",
    "phone": "02-2038-4987",
    "bed": 17,
    "dec": 4,
    "lon": 127.051918,
    "lat": 37.67788683
  },
  {
    "name": "고려가정의학과의원",
    "address": "서울특별시 노원구 광운로 57 (월계동)",
    "index": "내과, 정형외과, 소아청소년과, 이비인후과, 피부과",
    "phone": "909-1175",
    "bed": 0,
    "dec": 1,
    "lon": 127.0566416,
    "lat": 37.62265312
  },
  {
    "name": "서울뜻이룸치과의원",
    "address": "서울특별시 노원구 중계로 219, 2층 (중계동)",
    "index": "치과",
    "phone": "952-1004",
    "bed": 0,
    "dec": 1,
    "lon": 127.0727799,
    "lat": 37.65049267
  },
  {
    "name": "베스트가정의학과의원",
    "address": "서울특별시 노원구 덕릉로 694, 2층 (중계동, 수암약국)",
    "index": "내과, 신경과, 정신건강의학과, 외과, 정형외과, 소아청소년과, 이비인후과, 피부과, 비뇨의학과, 재활의학과, 가정의학과",
    "phone": "02-936-0075",
    "bed": 0,
    "dec": 1,
    "lon": 127.0727479,
    "lat": 37.65957047
  },
  {
    "name": "경희백한의원",
    "address": "서울특별시 노원구 공릉로34길 34, 2층 (공릉동, 서광빌딩)",
    "index": "한방내과, 한방부인과, 한방소아과, 한방안·이비인후·피부과, 한방신경정신과, 한방재활의학과, 사상체질과, 침구과",
    "phone": "02-976-1075",
    "bed": 0,
    "dec": 1,
    "lon": 127.078131,
    "lat": 37.6229673
  },
  {
    "name": "미래의원",
    "address": "서울특별시 노원구 초안산로5길 12, 월계프라자 (월계동)",
    "index": "내과, 외과, 정형외과, 산부인과, 소아청소년과, 이비인후과, 피부과, 비뇨의학과, 가정의학과",
    "phone": "02-900-4255",
    "bed": 0,
    "dec": 1,
    "lon": 127.0487641,
    "lat": 37.63255383
  },
  {
    "name": "코리아정형외과의원",
    "address": "서울특별시 노원구 동일로 1370, 3층 (상계동, 현대프라자)",
    "index": "내과, 정형외과, 신경외과, 성형외과, 마취통증의학과, 영상의학과, 재활의학과",
    "phone": "935-4888",
    "bed": 0,
    "dec": 1,
    "lon": 127.0589906,
    "lat": 37.65092277
  },
  {
    "name": "미앤미의원",
    "address": "서울특별시 노원구 동일로 1401, 6층 (상계동, 상아빌딩)",
    "index": "내과, 외과, 성형외과, 피부과, 비뇨의학과, 가정의학과",
    "phone": "934-1111",
    "bed": 0,
    "dec": 1,
    "lon": 127.0574477,
    "lat": 37.65356503
  },
  {
    "name": "에비뉴여성의원",
    "address": "서울특별시 노원구 노해로 480, 6층 (상계동, 조광빌딩)",
    "index": "산부인과, 가정의학과",
    "phone": 29360400,
    "bed": 0,
    "dec": 3,
    "lon": 127.0585495,
    "lat": 37.65415995
  },
  {
    "name": "삼성드림이비인후과의원",
    "address": "서울특별시 노원구 노해로 482, 4층 (상계동, 덕영빌딩)",
    "index": "성형외과, 이비인후과, 피부과",
    "phone": "935-1365(5365)",
    "bed": 5,
    "dec": 2,
    "lon": 127.058842,
    "lat": 37.65422665
  },
  {
    "name": "노원연세성형외과의원",
    "address": "서울특별시 노원구 노해로 480 (상계동)",
    "index": "성형외과",
    "phone": "02-945-8800",
    "bed": 0,
    "dec": 1,
    "lon": 127.0585495,
    "lat": 37.65415995
  },
  {
    "name": "연세주니어치과의원",
    "address": "서울특별시 노원구 노해로 485, 402호 (상계동, 금정빌딩)",
    "index": "치과",
    "phone": "935-7544",
    "bed": 0,
    "dec": 2,
    "lon": 127.0590451,
    "lat": 37.65487369
  },
  {
    "name": "연세웰치과의원",
    "address": "서울특별시 노원구 동일로 1678, 3층 (상계동, 새서울병원)",
    "index": "치과, 구강악안면외과, 치과보철과, 치과교정과, 소아치과, 치주과, 치과보존과, 구강내과, 영상치의학과, 구강병리과, 예방치과, 통합치의학과",
    "phone": "02-930-2875",
    "bed": 0,
    "dec": 1,
    "lon": 127.0528077,
    "lat": 37.67809817
  },
  {
    "name": "후한의원",
    "address": "서울특별시 노원구 상계로 55, 위성프라자 601호 (상계동)",
    "index": "한방내과, 한방부인과, 한방안·이비인후·피부과, 한방신경정신과, 한방재활의학과, 사상체질과, 침구과",
    "phone": "02-6959-2555",
    "bed": 0,
    "dec": 1,
    "lon": 127.0581509,
    "lat": 37.65608874
  },
  {
    "name": "제이스(J.S)비뇨기과의원",
    "address": "서울특별시 노원구 노해로 482 (상계동)",
    "index": "성형외과, 피부과, 비뇨의학과",
    "phone": "939-2500",
    "bed": 0,
    "dec": 1,
    "lon": 127.058842,
    "lat": 37.65422665
  },
  {
    "name": "서울원플란트치과의원",
    "address": "서울특별시 노원구 노해로 521, 정일빌딩 8층 (상계동)",
    "index": "구강악안면외과, 치과보철과, 치과교정과, 소아치과, 치주과, 치과보존과, 구강내과, 영상치의학과, 구강병리과, 예방치과, 통합치의학과",
    "phone": "02-935-2875",
    "bed": 0,
    "dec": 1,
    "lon": 127.0630068,
    "lat": 37.65574134
  },
  {
    "name": "해맑은의원",
    "address": "서울특별시 노원구 동일로 1449, 지하1층 (상계동)",
    "index": "정형외과, 성형외과, 안과, 피부과, 가정의학과",
    "phone": "02-938-7713",
    "bed": 0,
    "dec": 1,
    "lon": 127.0559342,
    "lat": 37.65796886
  },
  {
    "name": "온마들한의원",
    "address": "서울특별시 노원구 동일로 1532, 거북빌딩 3층 (상계동)",
    "index": "한방내과, 한방부인과, 한방소아과, 한방안·이비인후·피부과, 한방신경정신과, 한방재활의학과, 사상체질과, 침구과, 한방응급과",
    "phone": "02-933-7533",
    "bed": 8,
    "dec": 4,
    "lon": 127.0551084,
    "lat": 37.66531168
  },
  {
    "name": "신통방통마취통증의학과의원",
    "address": "서울특별시 노원구 동일로 1402 (상계동)",
    "index": "내과, 정형외과, 신경외과, 마취통증의학과",
    "phone": "932-9600",
    "bed": 0,
    "dec": 2,
    "lon": 127.0582784,
    "lat": 37.6537521
  },
  {
    "name": "경희김영환한의원",
    "address": "서울특별시 노원구 석계로9길 21 (월계동)",
    "index": "한방내과, 한방부인과, 한방소아과, 한방안·이비인후·피부과, 한방신경정신과, 한방재활의학과, 사상체질과, 침구과, 한방응급과",
    "phone": "02-2246-1075",
    "bed": 0,
    "dec": 1,
    "lon": 127.0602136,
    "lat": 37.61707224
  },
  {
    "name": "연세사랑니치과의원",
    "address": "서울특별시 노원구 동일로 1677, 5층 (상계동, 제성빌딩)",
    "index": "구강악안면외과, 치과보철과, 치과교정과, 소아치과, 치주과, 치과보존과, 구강내과, 구강악안면방사선과, 구강병리과, 예방치과, 치과, 구강악안면외과, 치과보철과, 치과교정과, 소아치과, 치주과, 치과보존과, 구강내과, 영상치의학과, 구강병리과, 예방치과",
    "phone": "930-2825",
    "bed": 0,
    "dec": 1,
    "lon": 127.0520512,
    "lat": 37.67819184
  },
  {
    "name": "휴한의원",
    "address": "서울특별시 노원구 노해로83길 4, 4층 (상계동, 은애경빌딩)",
    "index": "한방내과, 한방부인과, 한방소아과, 한방안·이비인후·피부과, 한방신경정신과, 한방재활의학과, 사상체질과, 침구과, 한방응급과",
    "phone": "02-934-9690",
    "bed": 0,
    "dec": 4,
    "lon": 127.0616459,
    "lat": 37.65553554
  },
  {
    "name": "중앙의원",
    "address": "서울특별시 노원구 월계로55길 4, 205호 (월계동, 사슴아파트)",
    "index": "내과, 정형외과, 소아청소년과, 이비인후과, 피부과, 비뇨의학과",
    "phone": "02-975-9860",
    "bed": 0,
    "dec": 1,
    "lon": 127.0580288,
    "lat": 37.63256067
  },
  {
    "name": "센트럴치과의원",
    "address": "서울특별시 노원구 동일로 986 (공릉동, 노원프레미어스엠코)",
    "index": "구강악안면외과, 치과보철과, 치과교정과, 소아치과, 치주과, 치과보존과, 구강내과, 예방치과",
    "phone": "02-976-0030",
    "bed": 0,
    "dec": 1,
    "lon": 127.0729908,
    "lat": 37.61833914
  },
  {
    "name": "서울스카이정형외과의원",
    "address": "서울특별시 노원구 노해로 480, 3층 (상계동, 조광빌딩)",
    "index": "내과, 외과, 정형외과, 신경외과, 흉부외과, 성형외과, 마취통증의학과, 소아청소년과, 이비인후과, 피부과, 비뇨의학과, 재활의학과, 가정의학과",
    "phone": "02-2039-0911",
    "bed": 0,
    "dec": 4,
    "lon": 127.0585495,
    "lat": 37.65415995
  },
  {
    "name": "경희탑한의원",
    "address": "서울특별시 노원구 수락산로 222 (상계동)",
    "index": "한방내과, 한방부인과, 한방소아과, 한방안·이비인후·피부과, 한방신경정신과, 한방재활의학과, 사상체질과, 침구과",
    "phone": "02-935-0303",
    "bed": 0,
    "dec": 1,
    "lon": 127.0513526,
    "lat": 37.67100734
  },
  {
    "name": "태릉밝은안과의원",
    "address": "서울특별시 노원구 동일로 1005, 3,4층 (공릉동, 대정빌딩)",
    "index": "안과",
    "phone": "02-977-8275",
    "bed": 0,
    "dec": 4,
    "lon": 127.07162,
    "lat": 37.61992782
  },
  {
    "name": "중앙드림치과의원",
    "address": "서울특별시 노원구 동일로192길 20, 3층 (공릉동, 중앙외과의원)",
    "index": "구강악안면외과, 치과보철과, 치과교정과, 소아치과, 치주과, 치과보존과, 구강내과, 영상치의학과, 구강병리과, 예방치과, 통합치의학과",
    "phone": "02-971-2080",
    "bed": 0,
    "dec": 1,
    "lon": 127.0713752,
    "lat": 37.62587049
  },
  {
    "name": "미소아이안과의원",
    "address": "서울특별시 노원구 한글비석로 383, 1층 200호 (중계동, 삼창타워프라자)",
    "index": "안과",
    "phone": "02-6677-1001",
    "bed": 0,
    "dec": 1,
    "lon": 127.0697706,
    "lat": 37.65897035
  },
  {
    "name": "현담한의원",
    "address": "서울특별시 노원구 동일로 1372 (상계동, 동보빌딩)",
    "index": "한방내과, 한방부인과, 한방소아과, 한방안·이비인후·피부과, 한방신경정신과, 한방재활의학과, 사상체질과, 침구과",
    "phone": "02-951-9410",
    "bed": 0,
    "dec": 1,
    "lon": 127.0589421,
    "lat": 37.65109879
  },
  {
    "name": "진내과의원",
    "address": "서울특별시 노원구 동일로204가길 34, 306호 (중계동, 씨앤미복합빌딩)",
    "index": "내과, 소아청소년과, 이비인후과, 피부과, 가정의학과",
    "phone": "02-949-8278",
    "bed": 0,
    "dec": 1,
    "lon": 127.0653461,
    "lat": 37.64074925
  },
  {
    "name": "365봄한의원",
    "address": "서울특별시 노원구 동일로 1343, 동일프라자빌딩 201,202,203호 (상계동)",
    "index": "한방내과, 한방부인과, 한방소아과, 한방안·이비인후·피부과, 한방신경정신과, 한방재활의학과, 사상체질과, 침구과, 한방응급과",
    "phone": "02-938-7575",
    "bed": 13,
    "dec": 3,
    "lon": 127.0590962,
    "lat": 37.64849264
  },
  {
    "name": "권오민마취통증의학과의원",
    "address": "서울특별시 노원구 동일로 1379, 5층 (상계동, 다모아빌딩)",
    "index": "정형외과, 신경외과, 마취통증의학과, 피부과, 재활의학과",
    "phone": "02-931-5111",
    "bed": 0,
    "dec": 2,
    "lon": 127.0579887,
    "lat": 37.65180055
  },
  {
    "name": "공릉의원",
    "address": "서울특별시 노원구 공릉로 147, 2층 (공릉동, 기업은행 공릉동지점)",
    "index": "내과, 마취통증의학과, 소아청소년과, 이비인후과, 피부과, 가정의학과",
    "phone": "02-974-2588",
    "bed": 0,
    "dec": 2,
    "lon": 127.0761573,
    "lat": 37.623129
  },
  {
    "name": "새봄재활의학과의원",
    "address": "서울특별시 노원구 상계로1길 14-11, A동 302,303,304호 (상계동)",
    "index": "내과, 신경과, 정형외과, 마취통증의학과, 재활의학과",
    "phone": 29333875,
    "bed": 0,
    "dec": 2,
    "lon": 127.0589831,
    "lat": 37.657003
  },
  {
    "name": "닥터쁘띠의원",
    "address": "서울특별시 노원구 동일로 1396, 중원빌딩 3층 (상계동)",
    "index": "피부과, 가정의학과",
    "phone": "02-3392-4285",
    "bed": 0,
    "dec": 4,
    "lon": 127.0584243,
    "lat": 37.6532439
  },
  {
    "name": "365열린내과의원",
    "address": "서울특별시 노원구 한글비석로 77, 3층 (하계동)",
    "index": "내과, 신경과, 정신건강의학과, 외과, 정형외과, 신경외과, 흉부외과, 성형외과, 마취통증의학과, 소아청소년과, 안과, 이비인후과, 피부과, 비뇨의학과, 재활의학과, 가정의학과, 응급의학과",
    "phone": "02-976-3658",
    "bed": 0,
    "dec": 3,
    "lon": 127.0675744,
    "lat": 37.63759571
  },
  {
    "name": "김순진성형외과의원",
    "address": "서울특별시 노원구 동일로 1417, 5층 (상계동)",
    "index": "성형외과",
    "phone": "937-0255",
    "bed": 0,
    "dec": 1,
    "lon": 127.0570693,
    "lat": 37.65509367
  },
  {
    "name": "행복한마음한의원",
    "address": "서울특별시 노원구 노해로 452, 503호 (상계동, 노빌리안골드)",
    "index": "한방내과, 한방부인과, 한방소아과, 한방안·이비인후·피부과, 한방신경정신과, 한방재활의학과, 사상체질과, 침구과, 한방응급과",
    "phone": 29310310,
    "bed": 0,
    "dec": 1,
    "lon": 127.0555375,
    "lat": 37.6534879
  },
  {
    "name": "경희느릅나무한의원",
    "address": "서울특별시 노원구 덕릉로 698, 3층 (중계동, 광현빌딩)",
    "index": "한방내과, 한방부인과, 한방소아과, 한방안·이비인후·피부과, 한방재활의학과",
    "phone": "02-931-7275",
    "bed": 0,
    "dec": 1,
    "lon": 127.0727675,
    "lat": 37.65983813
  },
  {
    "name": "노원성모정형외과의원",
    "address": "서울특별시 노원구 동일로 1550, 2층 201호 (상계동, 고려프라자빌딩)",
    "index": "정형외과, 신경외과, 마취통증의학과, 재활의학과",
    "phone": "932-5050",
    "bed": 0,
    "dec": 1,
    "lon": 127.0546904,
    "lat": 37.66691776
  },
  {
    "name": "나래마취통증의학과의원",
    "address": "서울특별시 노원구 동일로 1549, 302호 (상계동, 양성빌딩)",
    "index": "신경과, 정형외과, 신경외과, 마취통증의학과, 재활의학과",
    "phone": "935-9093",
    "bed": 0,
    "dec": 1,
    "lon": 127.0539907,
    "lat": 37.66671612
  },
  {
    "name": "은행나무한의원",
    "address": "서울특별시 노원구 중계로 225, 4층 (중계동, 청구3차아파트)",
    "index": "한방내과, 한방부인과, 한방소아과, 한방안·이비인후·피부과, 한방신경정신과, 한방재활의학과, 사상체질과, 침구과, 한방응급과",
    "phone": "02-3392-5911~2",
    "bed": 0,
    "dec": 1,
    "lon": 127.0714416,
    "lat": 37.64982755
  },
  {
    "name": "정영기한의원",
    "address": "서울특별시 노원구 동일로 1383, 301동 201호 (상계동, 주공3단지상가)",
    "index": "한방내과, 한방부인과, 한방소아과, 한방안·이비인후·피부과, 한방신경정신과, 한방재활의학과, 사상체질과, 침구과, 한방응급과",
    "phone": "02-951-3375",
    "bed": 0,
    "dec": 1,
    "lon": 127.0577367,
    "lat": 37.65238428
  },
  {
    "name": "명성한의원",
    "address": "서울특별시 노원구 동일로 1104, 2층 (공릉동)",
    "index": "한방내과, 한방부인과, 한방소아과, 한방안·이비인후·피부과, 한방신경정신과, 한방재활의학과, 사상체질과, 침구과, 한방응급과",
    "phone": "02-962-0006",
    "bed": 0,
    "dec": 1,
    "lon": 127.0689865,
    "lat": 37.62850378
  },
  {
    "name": "윤앤정와이앤제이성형외과의원",
    "address": "서울특별시 노원구 노해로 492, 3층 301호,302호 (상계동, 프린스빌딩)",
    "index": "성형외과",
    "phone": "02-933-7788",
    "bed": 0,
    "dec": 2,
    "lon": 127.0597984,
    "lat": 37.65444083
  },
  {
    "name": "힐링산부인과의원",
    "address": "서울특별시 노원구 노해로 485, 7층 (상계동, 금정빌딩)",
    "index": "산부인과, 피부과, 가정의학과",
    "phone": "952-9100",
    "bed": 0,
    "dec": 1,
    "lon": 127.0590451,
    "lat": 37.65487369
  },
  {
    "name": "중계윌내과의원",
    "address": "서울특별시 노원구 한글비석로 253, 세신프라자빌딩 401호, 402호, 405호 (중계동)",
    "index": "내과, 영상의학과, 진단검사의학과",
    "phone": "02-933-8255",
    "bed": 0,
    "dec": 3,
    "lon": 127.07346,
    "lat": 37.65042424
  },
  {
    "name": "노원한의원",
    "address": "서울특별시 노원구 노해로 495, 삼용빌딩 301호 (상계동)",
    "index": "한방내과, 한방부인과, 한방소아과, 한방안·이비인후·피부과, 한방재활의학과, 사상체질과, 침구과",
    "phone": "02-939-8575",
    "bed": 0,
    "dec": 1,
    "lon": 127.0602426,
    "lat": 37.65511715
  },
  {
    "name": "늘푸른한의원",
    "address": "서울특별시 노원구 노원로1길 67, 303호 (공릉동, 대덕프라자)",
    "index": "한방내과, 한방부인과, 한방소아과, 한방안·이비인후·피부과, 한방신경정신과, 한방재활의학과, 사상체질과, 침구과",
    "phone": "979-3579",
    "bed": 0,
    "dec": 1,
    "lon": 127.0807121,
    "lat": 37.62081085
  },
  {
    "name": "삼성드림소아청소년과의원",
    "address": "서울특별시 노원구 마들로3길 15, 2층 (월계동, 월계이마트)",
    "index": "소아청소년과",
    "phone": "3296-2502",
    "bed": 0,
    "dec": 5,
    "lon": 127.058968,
    "lat": 37.62734055
  },
  {
    "name": "권내과의원",
    "address": "서울특별시 노원구 마들로 111, 나동 205호, 206호 (월계동, 삼호종합상가)",
    "index": "내과, 소아청소년과, 이비인후과, 피부과",
    "phone": "972-8375",
    "bed": 0,
    "dec": 1,
    "lon": 127.0625257,
    "lat": 37.62459059
  },
  {
    "name": "기분조은이비인후과의원",
    "address": "서울특별시 노원구 한글비석로 359 (중계동)",
    "index": "소아청소년과, 이비인후과",
    "phone": "02-930-2025",
    "bed": 0,
    "dec": 1,
    "lon": 127.071806,
    "lat": 37.65769776
  },
  {
    "name": "서울메이플치과교정과치과의원",
    "address": "서울특별시 노원구 한글비석로 270, 스카이타워 203호 (중계동)",
    "index": "치과교정과",
    "phone": "02-6925-0510",
    "bed": 0,
    "dec": 1,
    "lon": 127.0745418,
    "lat": 37.65155821
  },
  {
    "name": "샤인빔의원",
    "address": "서울특별시 노원구 노해로 460, 현대증권빌딩 (상계동)",
    "index": "성형외과, 피부과",
    "phone": "1544-0154",
    "bed": 0,
    "dec": 1,
    "lon": 127.0564131,
    "lat": 37.65368354
  },
  {
    "name": "노원마디본의원",
    "address": "서울특별시 노원구 동일로 1392, 한일빌딩 4층 (상계동)",
    "index": "정형외과",
    "phone": "02-930-8275",
    "bed": 0,
    "dec": 1,
    "lon": 127.0584803,
    "lat": 37.65305829
  },
  {
    "name": "퍼스트 성모안과의원",
    "address": "서울특별시 노원구 동일로 1405, KB금융 노원Plaza 8층 (상계동)",
    "index": "안과",
    "phone": "02-6956-8011",
    "bed": 1,
    "dec": 3,
    "lon": 127.0573279,
    "lat": 37.65381987
  },
  {
    "name": "서울으뜸치과의원",
    "address": "서울특별시 노원구 동일로 1673, 상계빌딩 3층 (상계동)",
    "index": "구강악안면외과, 치과보철과, 치과교정과, 소아치과, 치주과, 치과보존과, 구강내과, 영상치의학과, 구강병리과, 예방치과, 통합치의학과",
    "phone": "02-935-0011",
    "bed": 0,
    "dec": 1,
    "lon": 127.051918,
    "lat": 37.67788683
  },
  {
    "name": "오른치과의원",
    "address": "서울특별시 노원구 동일로 1405, KB금융 노원Plaza 4층 (상계동)",
    "index": "구강악안면외과, 치과보철과, 치과교정과, 소아치과, 치주과, 치과보존과, 구강내과, 영상치의학과, 구강병리과, 예방치과, 통합치의학과",
    "phone": "02-2038-2835",
    "bed": 0,
    "dec": 5,
    "lon": 127.0573279,
    "lat": 37.65381987
  },
  {
    "name": "서울더플랜치과의원",
    "address": "서울특별시 노원구 노해로 494, 고려빌딩 2층 201~203호 (상계동)",
    "index": "구강악안면외과, 치과보철과, 치과교정과, 소아치과, 치주과, 치과보존과, 구강내과, 영상치의학과, 구강병리과, 예방치과",
    "phone": "02-935-2828",
    "bed": 0,
    "dec": 1,
    "lon": 127.0601084,
    "lat": 37.65451136
  },
  {
    "name": "비타민가정의원",
    "address": "서울특별시 노원구 동일로 1551, 삼전빌딩 202호 (상계동)",
    "index": "내과, 신경과, 소아청소년과, 이비인후과, 피부과, 비뇨의학과, 재활의학과, 가정의학과",
    "phone": "02-951-8279",
    "bed": 0,
    "dec": 1,
    "lon": 127.053947,
    "lat": 37.66688377
  },
  {
    "name": "로젤의원",
    "address": "서울특별시 노원구 동일로 1419, 디와이홀딩스(주)빌딩 301호 (상계동)",
    "index": "성형외과, 피부과",
    "phone": "02-6956-5750",
    "bed": 0,
    "dec": 1,
    "lon": 127.056961,
    "lat": 37.65530667
  },
  {
    "name": "백세당경희나비한의원",
    "address": "서울특별시 노원구 동일로 1345, 201호, 301호 (상계동, 인천빌딩)",
    "index": "한방내과, 한방부인과, 한방소아과, 한방안·이비인후·피부과, 한방신경정신과, 한방재활의학과, 사상체질과, 침구과",
    "phone": "933-1033",
    "bed": 0,
    "dec": 1,
    "lon": 127.0589892,
    "lat": 37.64868963
  },
  {
    "name": "새마음정신건강의학과의원",
    "address": "서울특별시 노원구 덕릉로 814 (상계동)",
    "index": "정신건강의학과, 가정의학과",
    "phone": "952-9600",
    "bed": 49,
    "dec": 2,
    "lon": 127.077687,
    "lat": 37.66930533
  },
  {
    "name": "샤인치과교정과 치과병원",
    "address": "서울특별시 노원구 노해로 488, 근호빌딩 5층 502호 (상계동)",
    "index": "구강악안면외과, 치과보철과, 치과교정과, 소아치과, 치주과, 치과보존과, 구강내과, 영상치의학과, 구강병리과, 예방치과",
    "phone": "02-930-2841",
    "bed": 0,
    "dec": 2,
    "lon": 127.0592672,
    "lat": 37.65432112
  },
  {
    "name": "모아한방병원",
    "address": "서울특별시 노원구 동일로 987, 태릉마이크로병원건물 2,5,6,7층 (공릉동)",
    "index": "내과, 신경과, 정형외과, 신경외과, 마취통증의학과, 소아청소년과, 이비인후과, 피부과, 비뇨의학과, 영상의학과, 진단검사의학과, 재활의학과, 가정의학과, 한방내과, 한방부인과, 한방소아과, 한방안·이비인후·피부과, 한방신경정신과, 한방재활의학과, 사상체질과, 침구과",
    "phone": "1533-7585",
    "bed": 66,
    "dec": 19,
    "lon": 127.0721058,
    "lat": 37.61825784
  },
  {
    "name": "그레이스힐 요양병원",
    "address": "서울특별시 노원구 노원로 461, 대감프라자빌딩 3,4,5,6층 (상계동)",
    "index": "내과, 신경과, 외과, 정형외과, 신경외과, 피부과, 재활의학과, 가정의학과, 한방내과, 한방재활의학과, 침구과",
    "phone": "02-934-1300",
    "bed": 220,
    "dec": 15,
    "lon": 127.0628562,
    "lat": 37.65748369
  },
  {
    "name": "강북예치과병원",
    "address": "서울특별시 노원구 노해로81길 5-6, 노원스퀘어 5-7층 (상계동)",
    "index": "치과, 치과보철과, 치과교정과, 치주과, 예방치과",
    "phone": "938-2833",
    "bed": 0,
    "dec": 4,
    "lon": 127.0594965,
    "lat": 37.65522905
  },
  {
    "name": "선의요양병원",
    "address": "서울특별시 노원구 동일로 1419, 9층~11층 (상계동)",
    "index": "내과, 신경과, 외과, 재활의학과, 가정의학과, 한방내과",
    "phone": "02-3391-3992~3",
    "bed": 135,
    "dec": 22,
    "lon": 127.056961,
    "lat": 37.65530667
  },
  {
    "name": "메디아이여성병원",
    "address": "서울특별시 노원구 노원로 448 (상계동, 메디아이여성병원)",
    "index": "산부인과, 소아청소년과",
    "phone": "02-936-2122",
    "bed": 36,
    "dec": 63,
    "lon": 127.064136,
    "lat": 37.65651908
  },
  {
    "name": "태릉마이크로병원",
    "address": "서울특별시 노원구 동일로 987 (공릉동)",
    "index": "내과, 외과, 정형외과, 신경외과, 성형외과, 마취통증의학과, 소아청소년과, 피부과, 영상의학과",
    "phone": "970-0801",
    "bed": 74,
    "dec": 10,
    "lon": 127.0721058,
    "lat": 37.61825784
  },
  {
    "name": "방병원",
    "address": "서울특별시 노원구 동일로 989, 2~9층 (공릉동)",
    "index": "내과, 신경과, 정형외과, 신경외과, 마취통증의학과, 산부인과, 소아청소년과, 피부과, 비뇨의학과, 영상의학과, 재활의학과",
    "phone": "02-1577-4447",
    "bed": 67,
    "dec": 63,
    "lon": 127.0721168,
    "lat": 37.61841772
  },
  {
    "name": "한국원자력의학원원자력병원",
    "address": "서울특별시 노원구 노원로 75, 한국원자력의학원 (공릉동)",
    "index": "내과, 신경과, 정신건강의학과, 외과, 정형외과, 신경외과, 흉부외과, 성형외과, 마취통증의학과, 산부인과, 소아청소년과, 안과, 이비인후과, 피부과, 비뇨의학과, 영상의학과, 방사선종양학과, 병리과, 진단검사의학과, 가정의학과, 핵의학과, 응급의학과, 구강악안면외과, 치과보철과, 치과교정과, 소아치과, 치주과, 치과보존과, 구강내과, 영상치의학과, 예방치과",
    "phone": "02-970-2114",
    "bed": 479,
    "dec": 616,
    "lon": 127.0820245,
    "lat": 37.63332389
  },
  {
    "name": "인제대학교 상계백병원",
    "address": "서울특별시 노원구 동일로 1342, 상계백병원 (상계동)",
    "index": "내과, 신경과, 정신건강의학과, 외과, 정형외과, 신경외과, 흉부외과, 성형외과, 마취통증의학과, 산부인과, 소아청소년과, 안과, 이비인후과, 피부과, 비뇨의학과, 영상의학과, 방사선종양학과, 병리과, 진단검사의학과, 재활의학과, 가정의학과, 핵의학과, 응급의학과, 구강악안면외과",
    "phone": "02-950-1114",
    "bed": 541,
    "dec": 962,
    "lon": 127.060094,
    "lat": 37.64866645
  },
  {
    "name": "노원을지대학교병원",
    "address": "서울특별시 노원구 한글비석로 68, 을지병원 (하계동)",
    "index": "내과, 신경과, 정신건강의학과, 외과, 정형외과, 신경외과, 흉부외과, 성형외과, 마취통증의학과, 산부인과, 소아청소년과, 안과, 이비인후과, 피부과, 비뇨의학과, 영상의학과, 방사선종양학과, 병리과, 진단검사의학과, 재활의학과, 가정의학과, 핵의학과, 응급의학과, 구강악안면외과, 치과보철과, 치과교정과",
    "phone": "02-970-8000",
    "bed": 546,
    "dec": 741,
    "lon": 127.0670351,
    "lat": 37.63646108
  },
  {
    "name": "강북연세병원",
    "address": "서울특별시 노원구 동일로 996 (공릉동)",
    "index": "내과, 정형외과, 신경외과, 마취통증의학과, 영상의학과, 진단검사의학과, 재활의학과",
    "phone": "02-1800-0755,5504~5",
    "bed": 82,
    "dec": 74,
    "lon": 127.0725666,
    "lat": 37.61926657
  },
  {
    "name": "더조은요양병원",
    "address": "서울특별시 노원구 화랑로 323 (월계동)",
    "index": "내과, 신경과, 외과, 정형외과, 신경외과, 피부과, 비뇨의학과, 재활의학과, 가정의학과, 한방내과",
    "phone": "02-941-7800",
    "bed": 299,
    "dec": 65,
    "lon": 127.060738,
    "lat": 37.61487154
  },
  {
    "name": "의료법인 행복나눔의료재단 사랑요양병원",
    "address": "서울특별시 노원구 동일로243길 45 (상계동, 사랑요양병원)",
    "index": "내과, 신경과, 외과, 정형외과, 신경외과, 재활의학과, 가정의학과, 한방내과, 한방재활의학과, 침구과",
    "phone": "02-933-1114",
    "bed": 171,
    "dec": 27,
    "lon": 127.049571,
    "lat": 37.67842501
  },
  {
    "name": "다인치과병원",
    "address": "서울특별시 노원구 노해로 507, 5층 (상계동, 와우쇼핑몰)",
    "index": "구강악안면외과, 치과보철과, 치과교정과, 소아치과, 치주과, 치과보존과, 구강내과, 영상치의학과, 구강병리과, 예방치과",
    "phone": "02-952-2275",
    "bed": 0,
    "dec": 5,
    "lon": 127.0608712,
    "lat": 37.65533921
  },
  {
    "name": "참튼튼병원",
    "address": "서울특별시 노원구 노해로 502, 2층, 3층, 5층 (상계동)",
    "index": "내과, 신경과, 외과, 정형외과, 신경외과, 마취통증의학과, 산부인과, 소아청소년과, 피부과, 비뇨의학과, 영상의학과, 병리과, 재활의학과",
    "phone": "02-3392-9100",
    "bed": 75,
    "dec": 32,
    "lon": 127.0608013,
    "lat": 37.65445065
  },
  {
    "name": "재단법인자생의료재단노원자생한방병원",
    "address": "서울특별시 노원구 노해로 507, 7,8층 (상계동, 와우쇼핑몰)",
    "index": "내과, 영상의학과, 한방내과, 한방부인과, 한방소아과, 한방안·이비인후·피부과, 한방신경정신과, 한방재활의학과, 사상체질과, 침구과",
    "phone": "02-2289-0717",
    "bed": 32,
    "dec": 25,
    "lon": 127.0608712,
    "lat": 37.65533921
  },
  {
    "name": "노원솔요양병원",
    "address": "서울특별시 노원구 덕릉로 690, 기업은행 2,3,4,5층 (중계동)",
    "index": "내과, 신경과, 외과, 정형외과, 재활의학과, 가정의학과, 한방내과, 한방부인과, 한방소아과, 한방안·이비인후·피부과, 한방신경정신과, 한방재활의학과, 사상체질과, 침구과, 한방응급과",
    "phone": "932-0036",
    "bed": 149,
    "dec": 29,
    "lon": 127.0728793,
    "lat": 37.65917275
  },
  {
    "name": "희망요양병원",
    "address": "서울특별시 노원구 상계로26길 7 (상계동)",
    "index": "내과, 외과, 정형외과, 재활의학과",
    "phone": "936-9966",
    "bed": 87,
    "dec": 9,
    "lon": 127.0679944,
    "lat": 37.65822715
  },
  {
    "name": "서울제일한방병원",
    "address": "서울특별시 노원구 노원로 461, 2층 (상계동)",
    "index": "가정의학과, 한방내과, 한방부인과, 한방소아과, 한방안·이비인후·피부과, 한방신경정신과, 한방재활의학과, 사상체질과, 침구과",
    "phone": "02-937-0052",
    "bed": 46,
    "dec": 8,
    "lon": 127.0628562,
    "lat": 37.65748369
  },
  {
    "name": "서울미르한방병원",
    "address": "서울특별시 노원구 동일로197길 11, 공삼빌딩 2,3,4층 (공릉동)",
    "index": "내과, 정형외과, 신경외과, 마취통증의학과, 소아청소년과, 이비인후과, 피부과, 재활의학과, 가정의학과, 한방내과, 한방부인과, 한방소아과, 한방안·이비인후·피부과, 한방신경정신과, 한방재활의학과, 사상체질과, 침구과",
    "phone": "02-949-1075",
    "bed": 52,
    "dec": 15,
    "lon": 127.0678002,
    "lat": 37.62848182
  },
  {
    "name": "의선의료재단 선한이웃병원",
    "address": "서울특별시 노원구 화랑로 323 (월계동,,30호)",
    "index": "내과, 외과, 정형외과, 신경외과, 마취통증의학과, 소아청소년과, 영상의학과, 진단검사의학과, 재활의학과, 가정의학과",
    "phone": "914-2000",
    "bed": 173,
    "dec": 48,
    "lon": 127.060738,
    "lat": 37.61487154
  }
]