[
  {
    "address": "서울특별시 성북구 고려대로 73 고려대병원 (안암동5가)",
    "name": "(학)고려대학교의과대학부속병원(안암병원)",
    "phone": "02-920-5374",
    "lon": 127.0264709,
    "lat": 37.58715608,
    "categori": "권역응급의료센터"
  },
  {
    "address": "서울특별시 영등포구 63로 10 여의도성모병원 (여의도동)",
    "name": "가톨릭대학교여의도성모병원",
    "phone": "02-3779-1188",
    "lon": 126.9367313,
    "lat": 37.51827234,
    "categori": "지역응급의료센터"
  },
  {
    "address": "서울특별시 은평구 통일로 1021 (진관동)",
    "name": "가톨릭대학교은평성모병원",
    "phone": "1811-7755",
    "lon": 126.9161505,
    "lat": 37.63360841,
    "categori": "지역응급의료센터"
  },
  {
    "address": "서울특별시 관악구 관악로 242 (봉천동)",
    "name": "강남고려병원",
    "phone": "02-874-7227",
    "lon": 126.9567809,
    "lat": 37.48561812,
    "categori": "응급실운영신고기관"
  },
  {
    "address": "서울특별시 관악구 남부순환로 1449 (신림동 서울본병원)",
    "name": "강남힐병원",
    "phone": "02-853-9100",
    "lon": 126.9117077,
    "lat": 37.48158534,
    "categori": "응급실운영신고기관"
  },
  {
    "address": "서울특별시 강동구 동남로 892 (상일동)",
    "name": "강동경희대학교의대병원",
    "phone": "02-440-7000",
    "lon": 127.1575218,
    "lat": 37.5534764,
    "categori": "권역응급의료센터"
  },
  {
    "address": "서울특별시 종로구 새문안로 29 (평동)",
    "name": "강북삼성병원",
    "phone": "02-2001-1009",
    "lon": 126.9679381,
    "lat": 37.56849763,
    "categori": "지역응급의료센터"
  },
  {
    "address": "서울특별시 강북구 도봉로 187 지하1층 2층~5층 (미아동)",
    "name": "강북으뜸병원",
    "phone": "02-986-0334",
    "lon": 127.0261845,
    "lat": 37.62542056,
    "categori": "응급실운영신고기관"
  },
  {
    "address": "서울특별시 광진구 능동로 120-1 (화양동)",
    "name": "건국대학교병원",
    "phone": "02-2030-5555",
    "lon": 127.0721229,
    "lat": 37.54084479,
    "categori": "지역응급의료센터"
  },
  {
    "address": "서울특별시 송파구 송이로 123 국립경찰병원 (가락동)",
    "name": "경찰병원",
    "phone": "02-3400-1300",
    "lon": 127.1234879,
    "lat": 37.49641321,
    "categori": "지역응급의료기관"
  },
  {
    "address": "서울특별시 동대문구 경희대로 23 (회기동)",
    "name": "경희대학교병원",
    "phone": "02-958-8282",
    "lon": 127.0518322,
    "lat": 37.59387655,
    "categori": "지역응급의료센터"
  },
  {
    "address": "서울특별시 구로구 구로동로 148 고려대부속구로병원 (구로동)",
    "name": "고려대학교의과대학부속구로병원",
    "phone": "02-2626-1550",
    "lon": 126.8847449,
    "lat": 37.49211115,
    "categori": "권역응급의료센터"
  },
  {
    "address": "서울특별시 구로구 경인로 427 구로성심병원 (고척동)",
    "name": "구로성심병원",
    "phone": "02-2067-1515",
    "lon": 126.8663604,
    "lat": 37.49964579,
    "categori": "지역응급의료기관"
  },
  {
    "address": "서울특별시 중구 을지로 245 (을지로6가)",
    "name": "국립중앙의료원",
    "phone": "02-2260-7414",
    "lon": 127.0057954,
    "lat": 37.56733956,
    "categori": "응급의료기관 이외"
  },
  {
    "address": "서울특별시 노원구 한글비석로 68 을지병원 (하계동)",
    "name": "노원을지대학교병원",
    "phone": "02-970-8282",
    "lon": 127.0700028,
    "lat": 37.63644293,
    "categori": "지역응급의료센터"
  },
  {
    "address": "서울특별시 중랑구 사가정로49길 53 (면목동)",
    "name": "녹색병원",
    "phone": "02-490-2113",
    "lon": 127.0860555,
    "lat": 37.58362084,
    "categori": "지역응급의료기관"
  },
  {
    "address": "서울특별시 영등포구 시흥대로 657 (대림동 대림성모병원)",
    "name": "대림성모병원",
    "phone": "02-829-9129",
    "lon": 126.9071695,
    "lat": 37.49068925,
    "categori": "지역응급의료기관"
  },
  {
    "address": "서울특별시 양천구 남부순환로 331 (신월동 메디힐병원)",
    "name": "메디힐병원",
    "phone": "02-2602-2468",
    "lon": 126.8278418,
    "lat": 37.53726143,
    "categori": "응급실운영신고기관"
  },
  {
    "address": "서울특별시 영등포구 도림로 156 명지성모병원 (대림동)",
    "name": "명지성모병원",
    "phone": "02-829-7800",
    "lon": 126.8992545,
    "lat": 37.49385071,
    "categori": "지역응급의료기관"
  },
  {
    "address": "서울특별시 강서구 강서로 295 (내발산동)",
    "name": "미즈메디병원",
    "phone": "02-2007-1118",
    "lon": 126.8360254,
    "lat": 37.55225379,
    "categori": "응급실운영신고기관"
  },
  {
    "address": "서울특별시 강서구 공항대로 389 부민병원 (등촌동)",
    "name": "부민병원",
    "phone": "02-2620-0119",
    "lon": 126.8509495,
    "lat": 37.55694089,
    "categori": "지역응급의료기관"
  },
  {
    "address": "서울특별시 관악구 남부순환로 1860 -11345층 (봉천동  )",
    "name": "사랑의병원",
    "phone": "02-880-0119",
    "lon": 126.9562869,
    "lat": 37.47962442,
    "categori": "응급실운영신고기관"
  },
  {
    "address": "서울특별시 강남구 일원로 81 (일원동 삼성의료원)",
    "name": "삼성서울병원",
    "phone": "02-3410-2060",
    "lon": 127.0866825,
    "lat": 37.48851613,
    "categori": "지역응급의료센터"
  },
  {
    "address": "서울특별시 동대문구 망우로 82 (휘경동)",
    "name": "삼육서울병원",
    "phone": "02-2210-3566",
    "lon": 127.0653288,
    "lat": 37.587992,
    "categori": "지역응급의료센터"
  },
  {
    "address": "서울특별시 종로구 대학로 101 (연건동)",
    "name": "서울대학교병원",
    "phone": "02-2072-2475",
    "lon": 126.9989631,
    "lat": 37.57966609,
    "categori": "권역응급의료센터"
  },
  {
    "address": "서울특별시 동대문구 왕산로 259 서울성심병원 (청량리동)",
    "name": "서울성심병원",
    "phone": "02-966-1616",
    "lon": 127.0498381,
    "lat": 37.58419129,
    "categori": "지역응급의료기관"
  },
  {
    "address": "서울특별시 종로구 새문안로 9 적십자병원 (평동)",
    "name": "서울적십자병원",
    "phone": "02-2002-8888",
    "lon": 126.9669986,
    "lat": 37.56715536,
    "categori": "지역응급의료기관"
  },
  {
    "address": "서울특별시 동작구 보라매로5길 20 (신대방동)",
    "name": "서울특별시보라매병원",
    "phone": "02-870-2119",
    "lon": 126.9240488,
    "lat": 37.4937184,
    "categori": "지역응급의료센터"
  },
  {
    "address": "서울특별시 양천구 신정이펜1로 20 (신정동)",
    "name": "서울특별시서남병원",
    "phone": "02-6300-9129",
    "lon": 126.8331299,
    "lat": 37.51201936,
    "categori": "지역응급의료기관"
  },
  {
    "address": "서울특별시 중랑구 신내로 156 (신내동)",
    "name": "서울특별시서울의료원",
    "phone": "02-2276-7403",
    "lon": 127.0980911,
    "lat": 37.61286932,
    "categori": "권역응급의료센터"
  },
  {
    "address": "서울특별시 강북구 도봉로 374 (번동 서울현대병원)",
    "name": "서울현대병원",
    "phone": "02-902-9119",
    "lon": 127.0281656,
    "lat": 37.63992822,
    "categori": "응급실운영신고기관"
  },
  {
    "address": "서울특별시 강동구 성안로 150 (길동)",
    "name": "성심의료재단강동성심병원",
    "phone": "02-2224-2358",
    "lon": 127.1352635,
    "lat": 37.53598408,
    "categori": "지역응급의료센터"
  },
  {
    "address": "서울특별시 영등포구 여의대방로53길 22 (신길동 성애병원)",
    "name": "성애의료재단성애병원",
    "phone": "02-840-7115",
    "lon": 126.9223673,
    "lat": 37.51205045,
    "categori": "지역응급의료센터"
  },
  {
    "address": "서울특별시 종로구 통일로 256 (무악동)",
    "name": "세란병원",
    "phone": "02-737-0181",
    "lon": 126.9577072,
    "lat": 37.57534017,
    "categori": "지역응급의료기관"
  },
  {
    "address": "서울특별시 용산구 대사관로 59 (한남동)",
    "name": "순천향대학교부속서울병원",
    "phone": "02-709-9117",
    "lon": 127.004418,
    "lat": 37.53384172,
    "categori": "지역응급의료센터"
  },
  {
    "address": "서울특별시 마포구 서강로 110 지2층~6층 (신수동)",
    "name": "신촌연세병원",
    "phone": "02-337-7582",
    "lon": 126.9337294,
    "lat": 37.55257735,
    "categori": "응급실운영신고기관"
  },
  {
    "address": "서울특별시 영등포구 영등포로36길 13 (영등포동4가 충무병원)",
    "name": "씨엠병원",
    "phone": "070-4698-7811",
    "lon": 126.9036798,
    "lat": 37.51884833,
    "categori": "응급실운영신고기관"
  },
  {
    "address": "서울특별시 관악구 남부순환로 1636 양지병원 (신림동)",
    "name": "에이치플러스양지병원",
    "phone": "070-4665-9119",
    "lon": 126.9325392,
    "lat": 37.48427507,
    "categori": "지역응급의료센터"
  },
  {
    "address": "서울특별시 강남구 언주로 211 강남세브란스병원 (도곡동)",
    "name": "연세대학교의과대학강남세브란스병원",
    "phone": "02-2019-3333",
    "lon": 127.0463125,
    "lat": 37.49280698,
    "categori": "지역응급의료센터"
  },
  {
    "address": "서울특별시 서대문구 연세로 50-1 (신촌동)",
    "name": "연세대학교의과대학세브란스병원",
    "phone": "02-2227-7777",
    "lon": 126.9408277,
    "lat": 37.56211711,
    "categori": "지역응급의료센터"
  },
  {
    "address": "서울특별시 강서구 하늘길 70 (과해동)",
    "name": "우리들병원",
    "phone": "02-2660-7057",
    "lon": 126.7963653,
    "lat": 37.56199597,
    "categori": "응급실운영신고기관"
  },
  {
    "address": "서울특별시 서대문구 연희로 272 동신병원 본관동 (홍은동)",
    "name": "의료법인동신의료재단동신병원",
    "phone": "02-396-9161",
    "lon": 126.9365831,
    "lat": 37.58110428,
    "categori": "지역응급의료기관"
  },
  {
    "address": "서울특별시 강북구 도봉로 301 (수유동 대한병원)",
    "name": "의료법인성화의료재단대한병원",
    "phone": "02-905-9110",
    "lon": 127.0226725,
    "lat": 37.63547043,
    "categori": "응급실운영신고기관"
  },
  {
    "address": "서울특별시 영등포구 당산로31길 10 (당산동3가)",
    "name": "의료법인인봉의료재단영등포병원",
    "phone": "02-2632-0013",
    "lon": 126.8956126,
    "lat": 37.52685674,
    "categori": "응급실운영신고기관"
  },
  {
    "address": "서울특별시 은평구 통일로 873 (갈현동)",
    "name": "의료법인청구성심병원",
    "phone": "02-383-0129",
    "lon": 126.919554,
    "lat": 37.62079154,
    "categori": "지역응급의료기관"
  },
  {
    "address": "서울특별시 중랑구 망우로 511 (망우동 동부제일병원)",
    "name": "의료법인풍산의료재단동부제일병원",
    "phone": "02-490-8880",
    "lon": 127.1090292,
    "lat": 37.60067565,
    "categori": "지역응급의료기관"
  },
  {
    "address": "서울특별시 도봉구 우이천로 308 한일병원 (쌍문동)",
    "name": "의료법인한전의료재단한일병원",
    "phone": "02-901-3119",
    "lon": 127.0290242,
    "lat": 37.6461157,
    "categori": "지역응급의료센터"
  },
  {
    "address": "서울특별시 양천구 안양천로 1071 (목동)",
    "name": "이화여자대학교의과대학부속목동병원",
    "phone": "02-2650-5911",
    "lon": 126.886216,
    "lat": 37.53654283,
    "categori": "권역응급의료센터"
  },
  {
    "address": "서울특별시 강서구 공항대로 260 이화의대부속서울병원 (마곡동)",
    "name": "이화여자대학교의과대학부속서울병원",
    "phone": "02-6986-5119",
    "lon": 126.8362659,
    "lat": 37.55726115,
    "categori": "지역응급의료센터"
  },
  {
    "address": "서울특별시 노원구 동일로 1342 상계백병원 (상계동)",
    "name": "인제대학교상계백병원",
    "phone": "02-950-1119",
    "lon": 127.0631162,
    "lat": 37.64858127,
    "categori": "지역응급의료센터"
  },
  {
    "address": "서울특별시 중구 마른내로 9 (저동2가)",
    "name": "인제대학교서울백병원",
    "phone": "02-2270-0119",
    "lon": 126.9888453,
    "lat": 37.56507317,
    "categori": "지역응급의료기관"
  },
  {
    "address": "서울특별시 강남구 도곡로 429 (대치동 베스티안병원 2층일부 제외)",
    "name": "재단법인베스티안재단베스티안서울병원",
    "phone": "070-7609-9902",
    "lon": 127.0572671,
    "lat": 37.49807127,
    "categori": "응급실운영신고기관"
  },
  {
    "address": "서울특별시 성동구 왕십리로 382 (하왕십리동)",
    "name": "재단법인베스티안재단베스티안서울병원",
    "phone": "02-6211-7965",
    "lon": 127.0280198,
    "lat": 37.56511028,
    "categori": "응급실운영신고기관"
  },
  {
    "address": "서울특별시 송파구 올림픽로43길 88 서울아산병원 (풍납동)",
    "name": "재단법인아산사회복지재단서울아산병원",
    "phone": "02-3010-3333",
    "lon": 127.1082383,
    "lat": 37.52656397,
    "categori": "지역응급의료센터"
  },
  {
    "address": "서울특별시 동작구 흑석로 102 (흑석동)",
    "name": "중앙대학교병원",
    "phone": "02-6299-1338",
    "lon": 126.9607938,
    "lat": 37.50707428,
    "categori": "지역응급의료센터"
  },
  {
    "address": "서울특별시 강남구 논현로 566 강남차병원(역삼동650-9 606-4 605외2필지(지하7층~지하1층 지상2층~7층)) (역삼동)",
    "name": "차의과학대학교강남차병원",
    "phone": "02-3468-3060",
    "lon": 127.0346687,
    "lat": 37.50680003,
    "categori": "응급실운영신고기관"
  },
  {
    "address": "서울특별시 서초구 반포대로 222 (반포동)",
    "name": "학교법인가톨릭학원가톨릭대학교서울성모병원",
    "phone": "02-2258-2002",
    "lon": 127.0047273,
    "lat": 37.5018008,
    "categori": "지역응급의료센터"
  },
  {
    "address": "서울특별시 영등포구 영등포로 83 한강수병원 (양평동1가)",
    "name": "한강수병원",
    "phone": "02-2063-8413",
    "lon": 126.8909128,
    "lat": 37.52240514,
    "categori": "응급실운영신고기관"
  },
  {
    "address": "서울특별시 강동구 진황도로61길 53 (둔촌동)",
    "name": "한국보훈복지의료공단중앙보훈병원",
    "phone": "02-2225-1100",
    "lon": 127.1467189,
    "lat": 37.5282209,
    "categori": "지역응급의료센터"
  },
  {
    "address": "서울특별시 노원구 노원로 75 한국원자력의학원 (공릉동)",
    "name": "한국원자력의학원원자력병원",
    "phone": "02-970-2620",
    "lon": 127.0826932,
    "lat": 37.62881598,
    "categori": "지역응급의료기관"
  },
  {
    "address": "서울특별시 영등포구 신길로 1 (대림동 강남성심병원)",
    "name": "한림대학교강남성심병원",
    "phone": "02-829-5119",
    "lon": 126.9086725,
    "lat": 37.49324929,
    "categori": "지역응급의료센터"
  },
  {
    "address": "서울특별시 영등포구 버드나루로7길 12 (영등포동7가 한강성심병원)",
    "name": "한림대학교한강성심병원",
    "phone": "02-2639-5555",
    "lon": 126.91033,
    "lat": 37.52346675,
    "categori": "응급실운영신고기관"
  },
  {
    "address": "서울특별시 성동구 왕십리로 222-1 (사근동)",
    "name": "한양대학교병원",
    "phone": "02-2290-8284",
    "lon": 127.0448828,
    "lat": 37.55994453,
    "categori": "권역응급의료센터"
  },
  {
    "address": "서울특별시 광진구 자양로 85 (자양동)",
    "name": "혜민병원",
    "phone": "02-2049-9119",
    "lon": 127.0836013,
    "lat": 37.53531566,
    "categori": "지역응급의료기관"
  },
  {
    "address": "서울특별시 양천구 목동로 225 홍익병원본관 (신정동)",
    "name": "홍익병원",
    "phone": "02-2600-0777",
    "lon": 126.863664,
    "lat": 37.52844147,
    "categori": "지역응급의료기관"
  },
  {
    "address": "서울특별시 금천구 시흥대로 244 (시흥동)",
    "name": "희명병원",
    "phone": "02-809-0122",
    "lon": 126.9005625,
    "lat": 37.45567063,
    "categori": "지역응급의료기관"
  }
]